INSERT INTO covdm_center (id, name, adress, region, longitude, latitude, sampling, public, timetable, checkapp, phoneapp, webapp, restricted)
VALUES
	(0,"CH DU HAUT BUGEY - GEOVREISSET","1 RTE DE VEYZIAT 01108 OYONNAX CEDEX",84,"5.62734768997551","46.2750589149894","Sur place","Personnel soignant/patients hospitalisés dans l'etablissement","","","0474731002","",True),
	(1,"LBM EUROFINS LABAZUR NICE SITE DURANTE","13 AV DURANTE 06000 NICE",93,"7.26244831069974","43.7028197205912","En EHPAD/En étab. santé","Personnel soignant/Résidents/Hospitalisés","","Sur rendez-vous uniquement","0493166868","",True),
	(2,"LBM EUROFINS LABAZUR NICE SITE FOCH","16 AV MARECHAL FOCH 06000 NICE",93,"7.27064848607833","43.7039298812242","En EHPAD/En étab. santé","Personnel soignant/Résidents","","Sur rendez-vous uniquement","0493851544","",True),
	(3,"LBM EUROFINS LABAZUR NICE SITE LES BOSQUETS","230 Avenue de la Californie 06200 Nice",93,"7.230306","43.680658","En EHPAD","Personnel soignant/Résidents","","Sur rendez-vous uniquement","0493836602","",True),
	(4,"LBM EUROFINS LABAZUR NICE SITE ST GEORGE","2 AV DE RIMIEZ 06000 NICE",93,"7.27287780162723","43.7394118428928","En étab. santé","Hospitalisés","","Sur rendez-vous uniquement","","",True),
	(5,"CH D'ANTIBES JUAN LES PINS","107 AV DE NICE 06606 ANTIBES CEDEX",93,"7.1172322292086","43.6011346134398","Sur place","Personnel soignant/Patients ayant été atteints par le COVID-19/Malades chroniques (ALD)/Femmes enceintes/Enfants 0-3 ans/Personnes en situation de handicap/Militaires","off pas d'accès au public","","0497247797","",True),
	(6,"USLD CH ANTIBES JUAN LES PINS","230 AV DE LA FONTONNE 06600 ANTIBES",93,"7.11841420362877","43.6004158385422","Sur place","Personnel soignant/Patients ayant été atteints par le COVID-19","off pas d'accès public","","0497248283","",True),
	(7,"EHPAD LES BALCONS DE LA FONTONNE","230 AV DE LA FONTONNE 06600 ANTIBES",93,"7.11841420362877","43.6004158385422","Sur place","Personnel soignant/Patients ayant été atteints par le COVID-19","off pas d'accès public","","0497248283","",True),
	(8,"EHPAD THIERS","19 AV THIERS 06600 ANTIBES",93,"7.12152361419178","43.5828078960901","Sur place","Personnel soignant/Patients ayant été atteints par le COVID-19","off pas d'accès public","","0497247991","",True),
	(9,"CSI UDSMA RODEZ","31 Avenue de la Gineste 12000 Rodez",76,"2.566289","44.361668","Equipes mobiles","patients fragiles","","Sur rendez-vous uniquement","06 80 39 53 66 (à partir du lundi 18 mai)","",True),
	(10,"CSI UDSMA MUR DE BARREZ","Avenue du Cardinal Verdier 12600 Mur-de-Barrez",76,"2.660854","44.843268","Equipes mobiles","patients fragiles","","Sur rendez-vous uniquement","06 80 39 53 66 (à partir du lundi 18 mai)","",True),
	(11,"CSI UDSMA VILLEFRANCHE DE ROUERGUE","12 Quai du Temple 12200 Villefranche-de-Rouergue",76,"2.039347","44.34935","Equipes mobiles","patients fragiles","","Sur rendez-vous uniquement","06 80 39 53 66 (à partir du lundi 18 mai)","",True),
	(12,"CSI UDSMA VILLECOMTAL","Route de Rodez 12580 Villecomtal",76,"2.567048","44.533753","Equipes mobiles","patients fragiles","","Sur rendez-vous uniquement","06 80 39 53 66 (à partir du lundi 18 mai)","",True),
	(13,"CSI UDSMA St AFFRIQUE","23 Place de la Liberté 12400 Saint-Affrique",76,"2.887033","43.958674","Equipes mobiles","patients fragiles","","Sur rendez-vous uniquement","06 80 39 53 66 (à partir du lundi 18 mai)","",True),
	(14,"CSI UDSMA St SERNIN SUR RANCE","20 Avenue d'Albi 12380 Saint-Sernin-sur-Rance",76,"2.603485","43.885944","Equipes mobiles","patients fragiles","","Sur rendez-vous uniquement","06 80 39 53 66 (à partir du lundi 18 mai)","",True),
	(15,"CSI UDSMA St BEAUZELY","chemin des gardiès 12620 Saint-Beauzély",76,"2.95747339725494","44.1667053507021","Equipes mobiles","patients fragiles","","Sur rendez-vous uniquement","06 80 39 53 66 (à partir du lundi 18 mai)","",True),
	(16,"CSI UDSMA RIGNAC","10 Rue de la Muraille 12390 Rignac",76,"2.288923","44.409495","Equipes mobiles","patients fragiles","","Sur rendez-vous uniquement","06 80 39 53 66 (à partir du lundi 18 mai)","",True),
	(17,"CSI UDSMA MILLAU","26 Rue Lucien Costes 12100 Millau",76,"3.08298","44.105254","Equipes mobiles","patients fragiles","","Sur rendez-vous uniquement","06 80 39 53 66 (à partir du lundi 18 mai)","",True),
	(18,"CSI UDSMA  DECAZEVILLE","Avenue du 10 Aout 12300 Decazeville",76,"2.255031","44.558601","Equipes mobiles","patients fragiles","","Sur rendez-vous uniquement","06 80 39 53 66 (à partir du lundi 18 mai)","",True),
	(19,"CSI UDSMA CAPDENAC","3 Rue Emile Combe 12700 Capdenac-Gare",76,"2.078768","44.574684","Equipes mobiles","patients fragiles","","Sur rendez-vous uniquement","06 80 39 53 66 (à partir du lundi 18 mai)","",True),
	(20,"CSI UDSMA AUBIN CRANSAC","Avenue François Cogné 12110 Aubin",76,"2.266181","44.527869","Equipes mobiles","patients fragiles","","Sur rendez-vous uniquement","06 80 39 53 66 (à partir du lundi 18 mai)","",True),
	(21,"CHI SITE D'AIX EN PROVENCE","AV DES TAMARIS 13616 AIX EN PROVENCE CEDEX 1",93,"5.44142180485349","43.5357309668568","Sur place","Personnel soignant/Dépistage pré-opératoire","","Sur rendez-vous uniquement","0442339052","",True),
	(22,"BIO 17  SITE PUILBOREAU","26 R DU MOULIN DES JUSTICES 17138 PUILBOREAU",75,"-1.12667697774412","46.1735970535149","Drive","sur prescription médicale","","Sur rendez-vous uniquement","0546557774 ou 0546557755","",True),
	(23,"CH DE VIERZON SITE LA NOUE","83 AV DU 14 JUILLET 18100 VIERZON",24,"2.06279184912927","47.210491370239","Sur place","Personnel soignant","","Sur rendez-vous uniquement","0248523404","",True),
	(24,"EHPAD LA NOUE","83 AV DU 14 JUILLET 18102 VIERZON CEDEX",24,"2.06279184912927","47.210491370239","Sur place","Personnel soignant","","Sur rendez-vous uniquement","0248523404","",True),
	(25,"LBM BIOEXCEL ST DOUCHARD","1 R DES VERDINS 18230 ST DOULCHARD",24,"2.37879110798921","47.1054010843421","Sur place","pré op","","Sur rendez-vous uniquement","0248658888","",True),
	(26,"LBM BIOEXCEL BOURGES HALLE","1 R DE LA HALLE 18000 BOURGES",24,"2.3910782319127","47.0833289379413","Sur place","pré op","","Sur rendez-vous uniquement","0248708333","",True),
	(27,"LBM BIOEXCEL BOURGES BOISDE","1 R RAYMOND BOISDE 18000 BOURGES",24,"2.39586483411695","47.0655065491209","Sur place","pré op","","Sur rendez-vous uniquement","0248653798","",True),
	(28,"LBM BIOEXCEL BOURGES RAMEAU","6 R JEAN RAMEAU 18000 BOURGES",24,"2.40531230231301","47.1054477703539","Sur place","pré op","","Sur rendez-vous uniquement","0248249359","",True),
	(29,"LBM BIOEXCEL ST FLORENT SUR CHER","3 AV ROGER BOISSELET 18400 ST FLORENT SUR CHER",24,"2.26718644913185","47.003331876982","Sur place","pré op","","Sur rendez-vous uniquement","0248553043","",True),
	(30,"LBM BIOEXCEL ST DOULCHARD GUILLAUME DE","210 RTE DE VOUZERON 18230 ST DOULCHARD",24,"2.35654505029452","47.1064480844613","Sur place","patients hospitalisés","off tous les jours","","0248658888","",True),
	(31,"LBM BIOEXCEL MEHUN SUR YEVRE","6 PL DE L'HOTEL DE VILLE 18500 MEHUN SUR YEVRE",24,"2.21734247127242","47.1456344268324","Sur place","pré op","","Sur rendez-vous uniquement","0248572483","",True),
	(32,"CLCC GEORGES-FRANCOIS LECLERC","1 R PROFESSEUR MARION 21079 DIJON CEDEX",27,"5.069419878896","47.3189151826254","Sur place","Personnel soignant/Malades chroniques (ALD)/Prélèvements réalisés au CLCC limités actuellement aux patients et personnels","","Sur rendez-vous uniquement","","",True),
	(33,"LBM TONNELLERIE VALLEE DE L'EURE CHART","7 R DE LA TONNELLERIE 28000 CHARTRES",24,"1.4872200458583","48.4442295660773","Sur place","bilan préopératoire","","Sur rendez-vous uniquement","0237361370","",True),
	(34,"LBM TONNELLERIE VALLEE DE L'EURE LUCE","71 R DE LA REPUBLIQUE 28110 LUCE",24,"1.46053175685432","48.4392208638571","Sur place","bilan préopératoire","","Sur rendez-vous uniquement","0237330757","",True),
	(35,"LBM TONNELLERIE VALLEE DE L'EURE MAINT","4 R GENEVIEVE RAINDRE 28130 MAINTENON",24,"1.57731492851441","48.5886035303802","Sur place","bilan préopératoire","","Sur rendez-vous uniquement","0237271325","",True),
	(36,"LBM TONNELLERIE VALLEE DE L'EURE NOGEN","5 R MAX COUSIN 28210 NOGENT LE ROI",24,"1.52213004278008","48.6531808031818","Sur place","bilan préopératoire","","Sur rendez-vous uniquement","0237513543","",True),
	(37,"LBM TONNELLERIE VALLEE DE L'EURE EPERN","R DE LA MADELEINE 28230 EPERNON",24,"1.68255197323199","48.6107209318036","Sur place","bilan préopératoire","","Sur rendez-vous uniquement","0237837830","",True),
	(38,"LBM TONNELLERIE VALLEE DE L'EURE AUNEA","18 ALL DES SEMOIRS 28700 AUNEAU BLEURY ST SYMPHORIE",24,"1.77141816313355","48.4590861604001","Sur place","bilan préopératoire","","Sur rendez-vous uniquement","0237312982","",True),
	(39,"CH COMMINGES PYRENEES SITE PLANCARD","351 Avenue de Saint-plancard 31800 Saint-Gaudens",76,"0.709515","43.112395","Sur place","Patient des urgences ou hospitalisés/Personnel soignants du CHCP","","","0562004001 ou 0561898000","",True),
	(40,"USLD CH COMMINGES PYRENEES PLANCARD","AV DE ST PLANCARD 31800 ST GAUDENS",76,"0.705742362020643","43.115284792423","Sur place","Patients hospitalisés","","","0562004361","",True),
	(41,"EHPAD ORELIA SITE ST PLANCARD","AV DE ST PLANCARD 31806 ST GAUDENS CEDEX",76,"0.705742362020643","43.115284792423","Sur place","Résidents de l'EHPAD","","","0562004371","",True),
	(42,"HOPITAL PRIVE WALLERSTEIN","14 BD JAVAL 33740 ARES",75,"-1.13249718511133","44.7564711282325","En étab. santé","Patients ayant été atteints par le COVID-19","","","","",True),
	(43,"LBM  EXALAB - BORDEAUX PEY BERLAND","14 PL PEY BERLAND 33000 BORDEAUX",75,"-0.57639094163174","44.8381173240433","Sur place","Patients asymptomatiques uniquement","","Sur rendez-vous uniquement","0556482800","",True),
	(44,"LBM EXALAB - SAINT ANDRE DE CUBZAC DAN","61 R DANTAGNAN 33240 ST ANDRE DE CUBZAC",75,"-0.442804302169103","44.9942739558901","Sur place","Patients asymptomatiques uniquement","","Sur rendez-vous uniquement","0557431901","",True),
	(45,"LBM EXALAB - MERIGNAC GALLIENI","10 AV DU MARECHAL GALLIENI 33700 MERIGNAC",75,"-0.616563025902994","44.8373877757939","Sur place","Patients asymptomatiques uniquement","","Sur rendez-vous uniquement","0556245900","",True),
	(46,"LBM EXALAB - BORDEAUX THIERS","57 AV THIERS 33000 BORDEAUX",75,"-0.556482294458317","44.8420930479004","Sur place","Patients asymptomatiques uniquement","","Sur rendez-vous uniquement","0556915475","",True),
	(47,"LBM EXALAB - LE BOUSCAT ZOLA","24 R EMILE ZOLA 33110 LE BOUSCAT",75,"-0.599765459354051","44.8641188965989","Sur place","Patients asymptomatiques uniquement","","Sur rendez-vous uniquement","0556088566","",True),
	(48,"LBM EXALAB - BASSENS LEON BLUM","7 R CAMILLE JULIAN 33530 BASSENS",75,"-0.508884532526938","44.9022304740584","Sur place","Patients asymptomatiques uniquement","","Sur rendez-vous uniquement","0557808100","",True),
	(49,"LBM EXALAB - BORDEAUX VICTOIRE","31 PL DE LA VICTOIRE 33000 BORDEAUX",75,"-0.572895155133756","44.8314336594942","Sur place","Patients asymptomatiques uniquement","","Sur rendez-vous uniquement","0556915475","",True),
	(50,"LBM EXALAB - MONT DE MARSAN QUIRINAL","1 AV QUIRINAL 40000 MONT DE MARSAN",75,"-0.48951771871787","43.8835863078231","Sur place","Patients asymptomatiques uniquement","","Sur rendez-vous uniquement","0558462020","",True),
	(51,"LBM EXALAB - MONT DE MARSAN PANCAUT","35 PL JOSEPH PANCAUT 40000 MONT DE MARSAN",75,"-0.503596288887257","43.8896903574169","Sur place","Patients asymptomatiques uniquement","","Sur rendez-vous uniquement","0558460404","pancaut.secretaires@exalab.fr",True),
	(52,"LBM ACCOLAB SUD-OUEST - GRAND PARC","34 R LOUIS GENDREAU 33000 BORDEAUX",75,"-0.583606464838651","44.8594777283586","Sur place","Personnes asymptomatiques seulement","","Sur rendez-vous uniquement","0556500463","",True),
	(53,"LBM ACCOLAB SUD-OUEST GALLIENI","45 CRS MARECHAL GALLIENI 33000 BORDEAUX",75,"-0.5912939422588","44.8242808566271","Sur place","Personnes asymptomatiques seulement","","Sur rendez-vous uniquement","0556989261","",True),
	(54,"CH DE LA HAUTE GIRONDE","97 R DE L'HOPITAL 33394 BLAYE CEDEX",75,"-0.65907255053121","45.1347100816262","En étab. santé","Patients ayant été atteints par le COVID-19","","","","",True),
	(55,"EHPAD - USLD CH SAINT-NICOLAS BLAYE","R DE L'HOPITAL 33390 BLAYE",75,"-0.657859523788957","45.1355746464605","En EHPAD","Patients ayant été atteints par le COVID-19","","","","",True),
	(56,"EHPAD LES TERRASSES DE BELLEROQUE","33710 BOURG SUR GIRONDE",75,"-0.559690287791306","45.0390934404962","En EHPAD","Patients ayant été atteints par le COVID-19","","","","",True),
	(57,"CLINIQUE MUTUALISTE DU MEDOC","64 R ARISTIDE BRIAND 33340 LESPARRE MEDOC",75,"-0.937326647828774","45.3041295981333","En étab. santé","Patients ayant été atteints par le COVID-19","","","","",True),
	(58,"CLINIQUE MUTUALISTE DE PESSAC","46 AV DU DOCTEUR SCHWEITZER 33608 PESSAC CEDEX",76,"-0.630403701678405","44.8058198365679","En étab. santé","Patients ayant été atteints par le COVID-19","","","","",True),
	(59,"CHRU RENNES SITE PONTCHAILLOU","2 R HENRI LE GUILLOUX 35000 RENNES",53,"-1.69752228878393","48.1160225073656","Sur place","Personnel soignant","","Sur rendez-vous uniquement","0299288356","",True),
	(60,"C.R.L.C.C. EUGENE MARQUIS","5 R BATAILLE FLANDRES-DUNKERQUE 35000 RENNES",53,"-1.70249351426916","48.1213571662779","Sur place","patients CLCC uniquement","","","","",True),
	(61,"CENTRE HOSPITALIER INTERCOMMUNAL d'AMBOISE -CHATEAU-RENAULT","Rue des Ursulines - 37400 - AMBOISE",24,"0.9813019547378","47.405393623122","Sur place","personnels hospitaliers/consultant (sur prescription médicale)","","Sur rendez-vous uniquement","02.47.23.31.32","",True),
	(62,"CH DU CHINONAIS","ROUTE de Tours D751 ,  37500  CHINON, ST BENOIT LA FORET",24,"0.293476581573486","47.18716370294","Sur place","Adulte et adolescents (à partir de 15 ans)","","Sur rendez-vous uniquement","02 47 93 75 19","",True),
	(63,"MEDILYS - CHAMPAGNOLE","50 Avenue de la Republique 39300 Champagnole",27,"5.909411","46.744409","En étab. santé","Patients ayant été atteints par le COVID-19","","Sur rendez-vous uniquement","03 84 52 57 65","https://www.medilys.fr/laboratoire-medilys-champagnole/",True),
	(64,"LBM BIO MEDI QUAL CENTRE BOURGES","110 AV FRANCOIS MITTERAND 18000 BOURGES",24,"2.43682054080446","47.0835302258496","Drive/Sur place","Personnel soignant/Malades chroniques (ALD)/Femmes enceintes/Personnes en situation de handicap/Patients ayant été atteints par le COVID-19/Militaires","","Sur rendez-vous uniquement","0248751617","",True),
	(65,"LBM BIO MEDI QUAL CENTRE VIERZON","82 R DU 8 MAI 1945 18100 VIERZON",24,"2.08072731355023","47.2310239078675","Drive/Sur place","Personnel soignant/Malades chroniques (ALD)/Femmes enceintes/Personnes en situation de handicap/Patients ayant été atteints par le COVID-19/Militaires","","Sur rendez-vous uniquement","0248751617","",True),
	(66,"LBM BIO MEDI QUAL CENTRE ISSOUDUN","ZAC LES COINCHETTES 36100 ISSOUDUN",24,"2.01349318099267","46.9548467258407","Drive/Sur place","Personnel soignant/Malades chroniques (ALD)/Femmes enceintes/Personnes en situation de handicap/Patients ayant été atteints par le COVID-19/Militaires","","Sur rendez-vous uniquement","0254210878","",True),
	(67,"LBM BIO MEDI QUAL CENTRE BUZANCAIS","2 PL AUX LEGUMES 36500 BUZANCAIS",24,"1.42199191404584","46.8893076397646","Drive/Sur place","Personnel soignant/Malades chroniques (ALD)/Femmes enceintes/Personnes en situation de handicap/Patients ayant été atteints par le COVID-19/Militaires","","Sur rendez-vous uniquement","0254021111","",True),
	(68,"LBM BIO MEDI QUAL CENTRE CHATEAUROUX","3 R ALBERT 1ER 36000 CHATEAUROUX",24,"1.69768586875193","46.810996758079","Drive/Sur place","Personnel soignant/Malades chroniques (ALD)/Femmes enceintes/Personnes en situation de handicap/Patients ayant été atteints par le COVID-19/Militaires","","Sur rendez-vous uniquement","0254606700","",True),
	(69,"LBM BIO MEDI QUAL CENTRE ROMORANTIN","11 R DES LIMOUSINS 41200 ROMORANTIN LANTHENAY",24,"1.74125872587633","47.3613402902348","Sur place","selon recommandations","","Sur rendez-vous uniquement","0254945656","",True),
	(70,"LBM BIO MEDI QUAL CENTRE SAINT AIGNAN","9 AV DU BLANC 41110 ST AIGNAN",24,"1.36184807675169","47.2632153658668","Drive/Sur place","Personnel soignant/Malades chroniques (ALD)/Femmes enceintes/Personnes en situation de handicap/Patients ayant été atteints par le COVID-19/Militaires","","Sur rendez-vous uniquement","0254750338","",True),
	(71,"LBM CERBALLIANCE LOIRE ST ETIENNE LA P","39 AV DE LA PALLE 42000 ST ETIENNE",84,"4.41721793579028","45.4279041665466","En étab. santé","","","Sur rendez-vous uniquement","0477495900","",True),
	(72,"LBM BIOLIANCE  SITE REZE","2 AV LOUISE MICHEL 44400 REZE",52,"-1.54817077032996","47.1881236524654","Sur place","","","Sur rendez-vous uniquement","0240328900","https://www.bioliance.fr/ou-faire-le-test/",True),
	(73,"LBM BIOLIANCE  SITE ST HERBLAIN","AV CLAUDE BERNARD 44800 ST HERBLAIN",52,"-1.61295619425623","47.2268292638032","Sur place","","","Sans rendez-vous","0253557120","https://www.bioliance.fr/ou-faire-le-test/",True),
	(74,"LBM BIOLIANCE  SITE COUERON","2 R DES ARDILLETS 44220 COUERON",52,"-1.71951778712181","47.2131241741841","Sur place","","","Sur rendez-vous uniquement","0240853190","https://www.bioliance.fr/ou-faire-le-test/",True),
	(75,"LBM BIOLIANCE  SITE ST PHILBERT DE GRAND LIEU","10 R DE PLAISANCE 44310 ST PHILBERT DE GRAND LIEU",52,"-1.63818956788894","47.0344053406216","Sur place","","","Sur rendez-vous uniquement","0240787986","https://www.bioliance.fr/ou-faire-le-test/",True),
	(76,"LBM BIOLIANCE  SITE STE LUCE SUR LOIRE","7 PL ROBERT SCHUMAN 44980 STE LUCE SUR LOIRE",52,"-1.48855351554395","47.2498690942922","Sur place","","","Sur rendez-vous uniquement","0240257172","https://www.bioliance.fr/ou-faire-le-test/",True),
	(77,"LBM BIOLIANCE  SITE NANTES","76 R BELLAMY 44000 NANTES",52,"-1.55901518838745","47.22523869402","Sur place","","","Sur rendez-vous uniquement","0251860786","https://www.bioliance.fr/ou-faire-le-test/",True),
	(78,"LBM BIOLIANCE  SITE LES SORINIERES","3 R DE L'ELAN 44840 LES SORINIERES",52,"-1.52951608154862","47.149504029504","Sur place","","","Sur rendez-vous uniquement","0251860781","https://www.bioliance.fr/ou-faire-le-test/",True),
	(79,"LBM BIOLIANCE  SITE ST HERBLAIN","177 RTE DE VANNES 44800 ST HERBLAIN",52,"-1.58988952231064","47.2393763052097","Sur place","","","Sur rendez-vous uniquement","0240760254","https://www.bioliance.fr/ou-faire-le-test/",True),
	(80,"CH AGGLOMERATION MONTARGOISE","658 R DES BOURGOINS 45200 AMILLY",24,"2.77028527653943","47.9975422421776","Sur place","Patients ayant été atteints par le COVID-19","","Sans rendez-vous","0238959022 ou 0238959085","",True),
	(81,"CHRU NANCY - HOPITAUX DE BRABOIS - HOPITAL D'ENFANTS","Rue du Morvan 54500 Vandœuvre-lès-Nancy",44,"6.149623","48.649782","Sur place","Enfants","Sa 08:30-16:00;Su off","","","",True),
	(82,"LABORATOIRE SECONDAIRE BIOTOP DENAIN","91 Rue du Maréchal Leclerc 59220 Denain",32,"3.398026","50.328828","Sur place","","","Sur rendez-vous uniquement","0327443111","",True),
	(83,"LABORATOIRE SECONDAIRE BIOTOP ROEULX","1 R JEAN-BAPTISTE LEBAS 59172 ROEULX",32,"3.34461596595945","50.3125211607349","Sur place","","","Sur rendez-vous uniquement","0327442406","",True),
	(84,"LABORATOIRE PRINCIPAL BIOTOP HZBK","6 R DE RUBECQUE 59190 HAZEBROUCK",32,"2.53766992922217","50.7219669177903","Sur place","","","Sur rendez-vous uniquement","0328509191","doctolib",True),
	(85,"LABORATOIRE SECONDAIRE BIOTOP PECQUENC","30 R GUSTAVE COLLIEZ 59146 PECQUENCOURT",32,"3.21290445784298","50.3772513368965","Sur place","","","Sur rendez-vous uniquement","0327902799","",True),
	(86,"LABORATOIRE SECONDAIRE BIOTOP DOUAI","514 R DE PARIS 59500 DOUAI",32,"3.07868242122285","50.3637135013025","Sur place","","","Sur rendez-vous uniquement","0327879813","doctolib",True),
	(87,"LABORATOIRE SECONDAIRE BIOTOP LA MADEL","207 Rue du General de Gaulle 59110 La Madeleine",32,"3.073663","50.657015","Sur place","","","Sur rendez-vous uniquement","0320128750","Doctolib",True),
	(88,"LABORATOIRE SECONDAIRE BIOTOP STEENVOO","PL SAINT-PIERRE 59114 STEENVOORDE",32,"2.58329487340273","50.8108008192602","Sur place","","","Sur rendez-vous uniquement","0328429752","",True),
	(89,"LABORATOIRE SECONDAIRE BIOTOP RUE WARE","Boulevard de l'Abbé Lemire 59190 Hazebrouck",32,"2.534201","50.724092","Sur place","","","Sur rendez-vous uniquement","0328419800","",True),
	(90,"LABORATOIRE SECONDAIRE BIOTOP SIN LE N","PL JEAN JAURES 59450 SIN LE NOBLE",32,"3.11431781227789","50.3650152471196","Sur place","","","Sur rendez-vous uniquement","0327918282","",True),
	(91,"CH BOULOGNE-SUR-MER","R JACQUES MONOD 62321 BOULOGNE SUR MER CEDEX",32,"1.63089593768826","50.7224667318559","Sur place","Personnel soignant/Patients symptomatiques (urgences et hospi)","","","0321993333","",True),
	(92,"CENTRE LUTTE CONTRE LE CANCER J.PERRIN","58 R MONTALEMBERT 63011 CLERMONT FERRAND CEDEX 1",84,"3.09444567878183","45.7570334327528","Sur place","Patients/Personnels de l'établissement","off Pas d'accès au public |","","0473278050","",True),
	(93,"LBM SEALAB-MARNE","68 AV DE LA MARNE 64200 BIARRITZ",75,"-1.54540877688208","43.4827196124379","Sur place","Patients asymptomatiques","","Sur rendez-vous uniquement","0559223750","",True),
	(94,"LBM SEALAB-11 NOVEMBRE","11 AV 11 NOVEMBRE 64100 BAYONNE",75,"-1.47486588814476","43.4929297498912","Sur place","Patients asymptomatiques","","Sur rendez-vous uniquement","0559592888","",True),
	(95,"CH DE LA COTE BASQUE - BAYONNE","13 AV DE L'INTERNE JACQUES LOEB 64109 BAYONNE CEDEX",75,"-1.48231413078151","43.4822956540914","Sur place","Personnel soignant","","Sur rendez-vous uniquement","05 33 78 80 16.","secr.covidom@ch-cotebasque.fr",True),
	(96,"CENTRE HOSPITALIER DE PAU","4 BD HAUTERIVE 64046 PAU CEDEX",75,"-0.35672185791546","43.3255153471604","Sur place","Personnel soignant/Femmes enceintes/Malades chroniques (ALD)","","","0559726942","",True),
	(97,"LBM CERBALLIANCE RHONE ALPES LES ABRET","38 R GAMBETTA 38490 LES ABRETS EN DAUPHINE",84,"5.58608193476711","45.535779850272","Sur place","","","Sur rendez-vous uniquement","0476322219","",True),
	(98,"CH NORD OUEST - VILLEFRANCHE","PLT D'OUILLY 69400 GLEIZE",84,"4.69082439617806","46.0055876388591","Sur place","Personnel soignant","","Sur rendez-vous uniquement","0474096810","",True),
	(99,"LBM LABORIZON MAINE ANJOU COULAINES","BD SAINT NICOLAS 72190 COULAINES",52,"0.202153948226289","48.027219115091","Sur place","sujets contacts Asymptomatiques","","Sur rendez-vous uniquement","02 43 94 71 50","http://www.laborizon-maine-anjou.fr/wp/covambu-72/",True),
	(100,"LBM LABORIZON MAINE ANJOU ALLONNES","CTRE COMMERCIAL CHAOUE 72700 ALLONNES",52,"0.165080087158018","47.972257215802","Sur place","sujets contacts Asymptomatiques","","Sur rendez-vous uniquement","02 43 94 71 50","http://www.laborizon-maine-anjou.fr/wp/covambu-72/",True),
	(101,"LBM LABORIZON MAINE ANJOU GAMBETTA LE","9 PL GAMBETTA 72000 LE MANS",52,"0.189420978917326","48.0072754812489","Sur place","sujets contacts Asymptomatiques","","Sur rendez-vous uniquement","02 43 94 71 50","http://www.laborizon-maine-anjou.fr/wp/covambu-72/",True),
	(102,"LABM DE LA BIBLIOTHÈQUE","58 R DU CHEVALERET 75013 PARIS",11,"2.37593183567283","48.8295631201364","Sur place/A domicile","prélèvement à domicile ou au laboratoire","","sur rendez vous et plage horaire en sans rendez vous","0144244040","www.labodelabibliotheque.fr",True),
	(103,"USLD EST PARISIEN SITE ROTHSCHILD APHP","5 R SANTERRE 75571 PARIS CEDEX 12",11,"2.39799638919864","48.8428339067605","Sur place","","","","","",True),
	(104,"HU PARIS CENTRE SITE HOTEL DIEU APHP","1 PL DU PARVIS DE NOTRE DAME 75181 PARIS CEDEX 04",11,"2.35161351606697","48.8527758385958","Sur place","","","","0142348078","",True),
	(105,"HU SAINT LOUIS SITE SAINT LOUIS APHP","1 AV CLAUDE VELLEFAUX 75475 PARIS CEDEX 10",11,"2.36974621795578","48.8728111911351","Sur place","","","","0142385010","",True),
	(106,"HU EST PARISIEN SITE ST ANTOINE APHP","184 R DU FAUBOURG SAINT ANTOINE 75571 PARIS CEDEX 12",11,"2.3827677512857","48.8502479430417","Sur place","","","","0149282084","",True),
	(107,"HU PITIE SALPETRIERE APHP","47 BD DE L HOPITAL 75651 PARIS CEDEX 13",11,"2.36319469988341","48.8401867621783","Sur place","","","","0142176006","",True),
	(108,"HU PARIS CENTRE SITE COCHIN APHP","27 R DU FAUBOURG SAINT JACQUES 75679 PARIS CEDEX 14",11,"2.33871953961247","48.8372218590234","Sur place","","","","0158411005","",True),
	(109,"HU NECKER ENFANTS MALADES APHP","149 R DE SEVRES 75743 PARIS CEDEX 15",11,"2.31446434051903","48.8461221457586","Sur place","","","","0144494115","",True),
	(110,"HU PARIS NORD SITE BICHAT APHP","46 R HENRI HUCHARD 75877 PARIS CEDEX 18",11,"2.33083491997901","48.8991104199906","Sur place","","","","0140258305","",True),
	(111,"HU EST PARISIEN SITE TENON APHP","4 R DE LA CHINE 75970 PARIS CEDEX 20",11,"2.40075810973818","48.8657227059205","Sur place","","","","0156016490","",True),
	(112,"HU PARIS OUEST SITE G POMPIDOU APHP","20 R LEBLANC 75908 PARIS CEDEX 15",11,"2.2754404244023","48.8393519478371","Sur place","","Mo 08:30-12:00,14:00-17:00;Tu 08:00-12:00,14:00-17:00;We 08:00-12:00,14:00-17:00;Th 08:00-12:00,14:00-17:00;Fr 08:00-12:00,14:00-17:00;Sa off;Su off","","0156092119","",True),
	(113,"HU OUEST SITE AMBROISE PARE APHP","9 AV CHARLES DE GAULLE 92104 BOULOGNE BILLANCOURT CEDEX",11,"2.23710920111641","48.849043603058","Sur place","","","","0149095799","",True),
	(114,"HU PITIE SALPETRIERE- CHARLE FOIX APHP","7 AV DE LA REPUBLIQUE 94206 IVRY SUR SEINE CEDEX",11,"2.39574560053996","48.803918339069","Sur place","","","","0149594147","",True),
	(115,"HIA PERCY","101 Avenue Henri Barbusse 92140 Clamart",11,"2.257654","48.813489","Sur place","Patients âgés de plus de 15 ans/civils ou militaires","","Sur rendez-vous uniquement pour les dépistages, sujets contact, voyage, pré-opératoire, soignants.","0141466238","",True),
	(116,"HIA ROBERT PICQUE","351 RTE DE TOULOUSE 33882 VILLENAVE D ORNON CEDEX",75,"-0.569843819922378","44.7994160825316","En étab. santé","Militaires","","","0556041790","",True),
	(117,"HIA PERCY","5 Rue du Lieutenant Raoul Batany 92140 Clamart",11,"2.25438","48.815592","Sur place","Patients âgés de plus de 15 ans/civils ou militaires","","Sur rendez-vous uniquement pour les dépistages, sujets contact, voyage, pré-opératoire, soignants.","0141466238","",True),
	(118,"CH DE MEAUX  SITE SAINT FARON","6 R SAINT FIACRE 77100 MEAUX",11,"2.88459940248094","48.9677939246209","Sur place","Personnel soignant","","","0164343347","",True),
	(119,"CHI POISSY ST GERMAIN SITE DE POISSY","10 Rue du Champ Gaillard 78300 Poissy",11,"2.022594","48.919264","Sur place","Sur place","off Tout public","","","",True),
	(120,"CH FRANCOIS QUESNAY MANTES","2 BD SULLY 78201 MANTES LA JOLIE CEDEX",11,"1.67648596665754","48.9980475862621","Sur place","Cas contacts liste CPAM/Sur ordonnance d'un médecin/Billet d'avion vers les DOM-TOM/Pas dans le cadre d'un dépistage massif par la CPAM","","Sur rendez-vous uniquement","0134974333","",True),
	(121,"LBM ALTISBIO  SITE ALBI","1 R DU PERE COLOMBIER 81000 ALBI",76,"2.16422848747298","43.9307855667987","Sur place","Personnel soignant","","","0563602840","",True),
	(122,"LBM CERBALLIANCE COTE D'AZUR PLATEAU GASSIN","ESPA SANTE DU GOLFE DE ST TROPEZ 83580 GASSIN",93,"6.58557990308221","43.2283609486028","En EHPAD/En étab. santé","Prélèvement en établissements de santé","","","","",True),
	(123,"LBM CERBALLIANCE COTE D'AZUR SITE TOUL - TOULON","7 BD DE STRASBOURG 83000 TOULON",93,"5.93001873157787","43.1252769793173","En EHPAD/En étab. santé","Prélèvement en établissements de santé","","Avec ou sans rendez-vous","04 94 92 31 37","Téléphone",True),
	(124,"CSAPA LE MALMONT DRAGUIGNAN","BD JOSEPH COLLOMP 83300 DRAGUIGNAN",93,"6.46261724658431","43.5469507724422","Sur place","résidents","","","0494605669","",True),
	(125,"EHPAD PUBLIC GEORGES CLEMENCEAU","421 AV 1ER BT INF MARINE PACIFIQUE 83130 LA GARDE",93,"6.01042374154228","43.1238715004217","Sur place","Personnel soignant/Patients ayant été atteints par le COVID-19","","","0494616162","",True),
	(126,"EHPAD TOUSSAINT MERLE","AV JULES RENARD 83507 LA SEYNE SUR MER CEDEX",93,"5.87080975265359","43.1108078600466","Sur place","Personnel soignant/Patients ayant été atteints par le COVID-19","","","0494618022","",True),
	(127,"CHITS USLD LA SEYNE SUR MER","AV JULES RENARD 83507 LA SEYNE SUR MER CEDEX",93,"5.87080975265359","43.1108078600466","Sur place","Patients ayant été atteints par le COVID-19/Personnel soignant","","","0494113010","",True),
	(128,"CHITS CH GEORGE SAND","AV JULES RENARD 83507 LA SEYNE SUR MER CEDEX",93,"5.87080975265359","43.1108078600466","Sur place","Patients ayant été atteints par le COVID-19/Personnel soignant","","?","0494113010","",True),
	(129,"CHITS HOPITAL GEORGES CLEMENCEAU","421 AV 1ER BT INF MARINE PACIFIQUE 83130 LA GARDE",93,"6.01042374154228","43.1238715004217","Sur place","Personnel soignant/Patients ayant été atteints par le COVID-19","","","0494088684","",True),
	(130,"CHITS USLD HOPITAL GEORGES CLEMENCEAU","421 AV 1ER BT INF MARINE PACIFIQUE 83130 LA GARDE",93,"6.01042374154228","43.1238715004217","Sur place","Patients ayant été atteints par le COVID-19/Personnel soignant","","","0494616162","",True),
	(131,"CHU LA MILETRIE","2 Rue de la Milètrie 86000 Poitiers",75,"0.383963","46.558578","Sur place","Enfants 0-3 ans","","Sur rendez-vous uniquement","05 16 60 42 02","",True),
	(132,"LBM BIOSMOSE SITE VERSAILLES SYMPHORIE","4 PL SAINT SYMPHORIEN 78000 VERSAILLES",11,"2.14644040133499","48.8044694384283","En cabinet infirmier","Patients ayant été atteints par le COVID-19/Sur rendez-vous","Mo 10:00-12:00;Tu 10:00-12:00;We 10:00-12:00;Th 10:00-12:00;Fr 10:00-12:00;Su off","","01 39 50 14 69","",True),
	(133,"LBM BIOSMOSE SITE VELIZY","70 PL LOUVOIS 78140 VELIZY VILLACOUBLAY",11,"2.17927022878736","48.7858466431228","Sur place","Patients ayant été atteints par le COVID-19/Sur rendez-vous","Mo 09:30-12:00,14:00-19:00;Tu 09:30-12:00,14:00-19:00;We 09:30-12:00,14:00-19:00;Th off;Fr off;Sa off;Su off","","01 39 46 09 22","",True),
	(134,"LBM BIOSMOSE SITE HERVET","3 R HERVET 92500 RUEIL MALMAISON",11,"2.17945921286848","48.8772538014647","Sur place","Patients ayant été atteints par le COVID-19/Sur rendez-vous","Mo 10:00-12:30;Tu 10:00-12:30;We 10:00-12:30;Th 10:00-12:30;Fr 10:00-12:30;Su off","","01 47 49 21 69","",True),
	(135,"GHI LE RAINCY MONTFERMEIL","10 R DU GENERAL LECLERC 93370 MONTFERMEIL",11,"2.57428404809458","48.8981701042599","Sur place","SAU/personnes hospitalisées","","","","",True),
	(136,"CTRE D MOYEN ET LONG SEJOUR LES ORMES","13 PL JEAN MERMOZ 93370 MONTFERMEIL",11,"2.57161627427222","48.9022901704305","Sur place","Résidents/Personnel soignant","","","","",True),
	(137,"EHPAD DU GHI LE RAINCY MONTFERMEIL","13 PL JEAN MEMOZ 93370 MONTFERMEIL",11,"2.57161627427222","48.9022901704305","Sur place","Résidents/Personnel soignant","","","","",True),
	(138,"USLD CTRE GERIATRIQUE LES ORMES","13 PL JEAN MERMOZ 93370 MONTFERMEIL",11,"2.57161627427222","48.9022901704305","Sur place","Résidents/Personnel soignant","","","","",True),
	(139,"CHU SITE SUD (SAINT PIERRE)","AV FRANCOIS MITTERRAND 97448 ST PIERRE CEDEX",4,"55.4885603835519","-21.346301841527","Drive","Sur place","off Tout public","","02  62 35 95 55","",True),
	(140,"LBM CROIX BLANCHE BOURG EN B","51 AV AMEDEE MERCIER 01000 BOURG EN BRESSE",84,"5.24185205182066","46.2038511077026","Sur place","Tout public","","Sur rendez-vous uniquement","0474452636","",False),
	(141,"LBM BIOPTEAM BOURG EN B LALANDE","14 R DE LA GRENOUILLERE 01000 BOURG EN BRESSE",84,"5.22631295949965","46.2084885923992","Sur place","Tout public","","","0474226107","",False),
	(142,"LBM BIOPTEAM BOURG EN B BRETIN","8 PL JOUBERT 01000 BOURG EN BRESSE",84,"5.22213399470798","46.2031860200091","Sur place","Tout public","Mo 10:00-12:00-off","","0474225209","",False),
	(143,"LBM BIOPTEAM VONNAS","48 PL FERDINAND DE BEOST 01540 VONNAS",84,"4.99175034653428","46.2187859343967","Sur place","Tout public","Mo 08:30-16:30-off","","0474500517","",False),
	(144,"CH LAON","33 R MARCELIN BERTHELOT 02001 LAON CEDEX",32,"3.61096827863758","49.5637153867027","Sur place","Tout public","","Sans rendez-vous","0323243360","",False),
	(145,"LBM SYNLAB Nord de France GUISE","42 Rue Alfred Chollet 02120 Guise",32,"3.627972","49.899185","Sur place","Tout public","","","0323612828","",False),
	(146,"LBM SYNLAB Nord de France LAON BROSSOLETTE","113 Boulevard Pierre Brossolette 02000 Laon",32,"3.618742","49.569244","Sur place","Tout public","","","0323231446","",False),
	(147,"LBM SYNLAB Nord de France TERGNIER","110 Boulevard Gambetta 02700 Tergnier",32,"3.287216","49.652518","Sur place","Tout public","","","0323570565","",False),
	(148,"LBM SYNLAB Nord de France SOISSONS","29 Rue du College 02200 Soissons",32,"3.32464","49.38206","Sur place","Tout public","","","0323595159","",False),
	(149,"LBM SYNLAB Nord de France SAINT-QUENTIN FAIDHERBE","9 AV FAIDHERBE 02100 ST QUENTIN",32,"3.28164455433242","49.8446618361253","Sur place","Tout public","","","","",False),
	(150,"LBM CORCY SOISSONS SAINT MARTIN","1 Rue Saint-martin 02200 Soissons",32,"3.328867","49.376744","Sur place","Tout public","","","0323532019","",False),
	(151,"LBM CORCY NOYON","29 Avenue Jean Jaures 60400 Noyon",32,"2.991533","49.575904","Sur place","Tout public","","","0344931639","",False),
	(152,"LBM BIOMÉDIQUAL BEAUTOR","60 Rue de Tergnier 02800 Beautor",32,"3.342459","49.658617","Sur place","Tout public/Cas contacts liste CPAM/Personnel soignant/Enfants 0-3 ans/Personnes en situation de précarité/Tout public - sur ordonnance/Malades chroniques (ALD)/Femmes enceintes/Personnes en situation de handicap/Patients ayant été atteints par le COVID-19/Militaires","","Sur rendez-vous uniquement","0323563468","doctolib",False),
	(153,"LBM BIOMÉDIQUAL NOYON ZAC","Chemin de la Haye Judas 60400 Noyon",32,"2.981569","49.569946","Sur place","Tout public/Cas contacts liste CPAM/Personnel soignant/Enfants 0-3 ans/Femmes enceintes/Patients ayant été atteints par le COVID-19/Personnes en situation de handicap/Personnes en situation de précarité/Tout public - sur ordonnance/Malades chroniques (ALD)/Militaires","","","0344440178","",False),
	(154,"LBM UNILABS BIOCT BRIENNE le CHATEAU","98 Rue de l'Ecole Militaire 10500 Brienne-le-Château",44,"4.526172","48.393817","Drive","Tout public","","Sur rendez-vous uniquement","0351255055","",False),
	(155,"LBM UNILABS BIOCT TROYES 1er Mai","28 Avenue du Premier Mai 10000 Troyes",44,"4.089293","48.304344","Drive","Tout public","","Sur rendez-vous uniquement","0325721132","",False),
	(156,"LBM UNILABS BIOCT CHÂTEAU-THIERRY","14 Avenue de l'Europe 02400 Château-Thierry",32,"3.400699","49.037421","Sur place","Tout public","","Sur rendez-vous uniquement","0323695490","",False),
	(157,"LBM UNILABS BIOCT REIMS MAISON BLANCHE","88 R DE LA MAISON BLANCHE 51100 REIMS",44,"4.02558869053501","49.2357506476954","Sur place","Tout public","","Sur rendez-vous uniquement","07 84 44 55 65","Doctolib",False),
	(158,"LBM UNILABS BIOCT FISMES","3 R CHAUDRU 51170 FISMES",44,"3.68377173044032","49.3066802644803","Drive","Tout public","","Sur rendez-vous uniquement","07 84 44 55 65","Doctolib",False),
	(159,"LBM UNILABS BIOCT EPERNAY CHAMPAGNE","4 AV DE CHAMPAGNE 51200 EPERNAY",44,"3.95801562897226","49.0433587575026","Sur place","Tout public","","Sur rendez-vous uniquement","0326511717","",False),
	(160,"LBM UNILABS BIOCT REIMS JAURÈS","211 AV JEAN JAURES 51100 REIMS",44,"4.05369512819202","49.2627579513282","Drive","Tout public","","Sur rendez-vous uniquement","07 84 44 55 65","Doctolib",False),
	(161,"MAYMAT Saint-Pourçain IDE","Rue du Bourbonnais 03500 Saint-Pourçain-sur-Sioule",84,"3.281653","46.307586","Sur place","Tout public","","","04 70  45 32 05","",False),
	(162,"MAYMAT Lapalisse - IDE Liberales CPTS Sud allier","Place Jean Bécaud 03120 Lapalisse",84,"3.628754","46.248931","Sur place","Tout public","","","04 70 99 04 69","",False),
	(163,"Cabinet IDE","Rue les Aubrelles 03230 Beaulon",84,"3.678582","46.600218","Sur place","Tout public","","","04 70 42 71 53","cabinetinfirmiersbeaulon@orange.fr",False),
	(164,"COVID-ROOM Moulins","Pl du Mal de Lattre de Tassigny 03000 Moulins",84,"3.330135","46.562209","Sur place","Tout public","","","04 70 44 23 43","",False),
	(165,"IDE Libérales CPTS Sud allier","32 Rue du Champ Feuillet 03500 Saint-Pourcain-sur-Sioule",84,"3.282162","46.304408","Sur place","Tout public","","Sur rendez-vous uniquement","04 70 45 32 05","",False),
	(166,"LBM MAYMAT MOULINS   FOUR","4 PL DU FOUR 03000 MOULINS",84,"3.32971955072918","46.5649884255695","Sur place","Tout public","Mo 14:00-18:00;Tu 14:00-18:00;We 14:00-18:00;Th 14:00-18:00;Fr 14:00-18:00;Sa 14:00-18:00;Su 14:00-18:00","","0470448982","",False),
	(167,"LBM MAYMAT BELLERIVE","AV DE RUSSIE 03700 BELLERIVE SUR ALLIER",84,"3.41032866536461","46.117667196337","Sur place","Tout public","","","0470323583","",False),
	(168,"LBM MAYMAT ST POURÇAIN / SIOULE","59 BD LEDRU ROLLIN 03500 ST POURCAIN SUR SIOULE",84,"3.28972015952997","46.3091063598013","Sur place","Tout public","","","0470456332","",False),
	(169,"LBM MAYMAT VARENNES / ALLIER","4 PL DU CHAMP DE MARS 03150 VARENNES SUR ALLIER",84,"3.4047214455751","46.3119328298699","Sur place","Tout public","Mo 14:00-18:00;Tu 14:00-18:00;We 14:00-18:00;Th 14:00-18:00;Fr 14:00-18:00;Sa off;Su off","","0470457170","",False),
	(170,"LBM MAYMAT MONTLUÇON","5 R ALBERT EINSTEIN 03100 MONTLUCON",84,"2.60030765545843","46.3480356529782","Sur place","Tout public","","","0470464921","",False),
	(171,"LBM MAYMAT NEVERS","13 Rue de Charleville-mezieres 58000 Nevers",27,"3.150984","46.98854","Sur place","Tout public","","Sur rendez-vous uniquement","03 86 57 09 18","https://www.laboratoire-ferrand-jankovic-rakover.fr/",False),
	(172,"LBM MAYMAT CLERMONT FD","7 PL HENRI DUNANT 63000 CLERMONT FERRAND",84,"3.08914728509551","45.7612727444089","Sur place","Tout public","","","","",False),
	(173,"LBM MAYMAT NAVETAT BOURBON-LANCY","Rue Max Boirot 71140 Bourbon-Lancy",27,"3.766025","46.622304","Sur place","Tout public","","Sans rendez-vous","03 85 89 30 60","",False),
	(174,"LBM SYNLAB AUVERGNE BELLERIVE DE GAULL","8 AV DU GENERAL DE GAULLE 03700 BELLERIVE SUR ALLIER",84,"3.41553110876824","46.1147000365121","Sur place","Tout public","","Sur rendez-vous uniquement","0470982110","bellerive@auvergne.synlab.fr",False),
	(175,"LBM SYNLAB AUVERGNE BEAUMONT","3 PL DE VERDUN 63110 BEAUMONT",84,"3.08290491230838","45.7526003938134","Sur place","Tout public","","Sur rendez-vous uniquement","0473288383","beaumont@auvergne.synlab.fr",False),
	(176,"CH DE MOULINS","10 AV DU GENERAL DE GAULLE 03006 MOULINS CEDEX",84,"3.32526416231874","46.5702948957609","Sur place","Tout public","","Sur rendez-vous uniquement","04 70 35 77 77","",False),
	(177,"CH DE MONTLUCON","18 AV DU 8 MAI 1945 03109 MONTLUCON CEDEX",84,"2.60863010567439","46.3427354736228","Sur place","Tout public","off sur RDV du lundi au vendredi de 13h00  à 15h00","","04 70 02 72 05","",False),
	(178,"LABM AUBRION STRZALKOWSKI","65 BD GASSENDI 04000 DIGNE LES BAINS",93,"6.23474312560347","44.092645255629","Sur place","Tout public","","","0492313169","",False),
	(179,"LBM MANESQ SITE DU MANUESCA","AV DU DOCTEUR BERNARD FOUSSIER 04100 MANOSQUE",93,"5.80485437138227","43.8293015063378","Sur place","Tout public","","","0492724590","",False),
	(180,"CH DES ESCARTONS DE BRIANCON","24 AV ADRIEN DAURELLE 05105 BRIANCON CEDEX",93,"6.63299546616609","44.9072642695455","Sur place","Tout public","","","0492252525","scr_lab@ch-brianon.fr",False),
	(181,"CHI DES ALPES DU SUD SITE DE GAP","1 PL AUGUSTE MURET 05007 GAP CEDEX",93,"6.07326807225251","44.5563943446239","Sur place","Tout public - sur ordonnance/Cas contacts liste CPAM","","Sur rendez-vous uniquement","0492407845","https://www.chicas-gap.fr/prenez-rendez-vous-en-ligne",False),
	(182,"LBM ANABIO 05 SITE GAP/TOKORO","83 AV D'EMBRUN 05000 GAP",93,"6.09915894582927","44.5683177354764","Sur place","Tout public","Tu 08:30-10:30;Th 08:30-10:30;Su off","","0492484950","",False),
	(183,"SELARL BIOMED 05 EMBRUN","LD LA CLAPIERE 05200 EMBRUN",93,"6.48367753815963","44.5538380684699","Sur place","Tout public","","Sur rendez-vous uniquement","0492435072","",False),
	(184,"SELARL BIOMED 05 VEYNES","DOM DE PARASSOL 05400 VEYNES",93,"5.81332159212679","44.5255174029651","Sur place","Tout public","","Sur rendez-vous uniquement","0492580734","",False),
	(185,"CENTRE COVID VAUBAN","18 Rue Maréchal Vauban 06300 Nice",93,"7.286587","43.711572","Sur place","Tout public","","Sur rendez-vous uniquement","0492004329","",False),
	(186,"LBM BARLA SITE BEAULIEU SUR MER/BERLUG","3 PL GENERAL DE GAULLE 06310 BEAULIEU SUR MER",93,"7.33032052913883","43.7074752670387","Sur place","Tout public","","Avec ou sans rendez-vous","0493011200","www.labo-barla.eu",False),
	(187,"LBM BARLA SITE NICE/BARLA","6 R BARLA 06000 NICE",93,"7.2812835033039","43.7023140415944","Sur place","Tout public","","Avec ou sans rendez-vous","0493554040","www.labo-barla.eu",False),
	(188,"LBM BARLA SITE NICE/SAINT ROCH","41 BD LOUIS BRAILLE 06000 NICE",93,"7.29332522842827","43.7214440454962","Sur place","Tout public","","Avec ou sans rendez-vous","0492005019","www.labo-barla.eu",False),
	(189,"LBM BARLA SITE NICE/LEPANTE","20 R LEPANTE 06000 NICE",93,"7.26949373996015","43.7050349729501","Sur place","Tout public","","Avec ou sans rendez-vous","0493857744","www.labo-barla.eu",False),
	(190,"LBM BARLA SITE NICE/LAMSI","45 BD DUBOUCHAGE 06000 NICE",93,"7.26849532455174","43.7006423506732","Sur place","Tout public","","Avec ou sans rendez-vous","0492176565","www.labo-barla.eu",False),
	(191,"LBM BARLA SITE MENTON/DE LA GARE","3 AV DE LA GARE 06500 MENTON",93,"7.49443340816558","43.7752354148007","Sur place","Tout public","","Avec ou sans rendez-vous","0493577979","www.labo-barla.eu",False),
	(192,"LBM BARLA SITE CANNES LA BOCCA/FRANCIS","91 AV FRANCIS TONNER 06150 CANNES",93,"6.97660122473711","43.5494971596639","Sur place","Tout public","","Avec ou sans rendez-vous","0493472412","www.labo-barla.eu",False),
	(193,"LBM BARLA SITE ANTIBES/CAP D'ANTIBES","",93,"7.12509760064443","43.580423254734","Sur place","Tout public","","Avec ou sans rendez-vous","0493000065","www.labo-barla.eu",False),
	(194,"LBM BARLA SITE CANNES/LA GARE","4 PL DE LA GARE 06150 CANNES",93,"7.01827205311033","43.5536118852131","Sur place","Tout public","","Avec ou sans rendez-vous","0492980042","www.labo-barla.eu",False),
	(195,"LBM BARLA SITE VALLAURIS/DE LA FONTAIN","AV DE L'HOPITAL VALLAURIS 06220 VALLAURIS",93,"7.05833014796663","43.5755285768639","Sur place","Tout public","","Avec ou sans rendez-vous","0493645353","www.labo-barla.eu",False),
	(196,"LBM BARLA SITE CAGNES SUR MER/L'EGLISE","13 R DE L EGLISE 06800 CAGNES SUR MER",93,"7.15116927229124","43.6625140569543","Sur place","Tout public","","Avec ou sans rendez-vous","0393209258","www.labo-barla.eu",False),
	(197,"LBM BARLA SITE GRASSE/CARNOT","1 BD CARNOT 06130 GRASSE",93,"6.92373883093694","43.657123149434","Sur place","Tout public","","Avec ou sans rendez-vous","0492607777","www.labo-barla.eu",False),
	(198,"LBM BARLA SITE MANDELIEU LA NAPOULE","601 AV DE FREJUS 06210 MANDELIEU LA NAPOULE",93,"6.93202739290793","43.5428018414077","Sur place","Tout public","","Avec ou sans rendez-vous","0492192578","www.labo-barla.eu",False),
	(199,"LBM BARLA SITE SAINT ANDRE DE LA ROCHE","7 CHE DU SOUVENIR 06730 ST ANDRE DE LA ROCHE",93,"7.28767722411324","43.7408843116818","Sur place","Tout public","","Avec ou sans rendez-vous","0497000363","www.labo-barla.eu",False),
	(200,"LBM BARLA SITE ST LAURENT DU VAR/CAP 3","",93,"7.18980580229945","43.6734218778367","Sur place","Tout public","","Avec ou sans rendez-vous","0497191900","www.labo-barla.eu",False),
	(201,"LBM BARLA SITE SITE NICE/D'ARSON","8 R D'ARSON 06000 NICE",93,"7.28657022038358","43.6993148849502","Sur place","Tout public","","Avec ou sans rendez-vous","0493551122","www.labo-barla.eu",False),
	(202,"LBM BARLA SITE NICE/SANTA MARIA PLATEA","57 AV DE LA CALIFORNIE 06000 NICE",93,"7.24116100625842","43.6893792186242","Sur place","Tout public","","Sur rendez-vous uniquement","0967738205","www.labo-barla.eu",False),
	(203,"LBM MAZARIN SITE SAINT ZACHARIE/SAINTE","RTE DPT 560 QUA ST ANTOINE 83640 ST ZACHARIE",93,"5.71036614906997","43.3874140861472","Sur place","Tout public","","Sur rendez-vous uniquement","","",False),
	(204,"LBM EUROFINS LABAZUR NICE SITE PONT MICHEL","170 Route de Turin 06300 Nice",93,"7.290245","43.723472","Sur place","Tout public","","Sur rendez-vous uniquement","0422531535","https://www.eurofins-biologie-medicale.com/",False),
	(205,"LBM EUROFINS LABAZUR NICE SITE FELIX F","10 Avenue Félix Faure 06000 Nice",93,"7.273359","43.6983","Sur place","Tout public","","Sur rendez-vous uniquement","0493967629","https://www.eurofins-biologie-medicale.com/",False),
	(206,"LBM EUROFINS LABAZUR NICE SITE CIMIEZ COLOMBO","3 AV COLOMBO 06000 NICE",93,"7.27615236282471","43.7240931704615","Drive/Sur place","Tout public","","Sur rendez-vous uniquement","0493967629","https://www.eurofins-biologie-medicale.com/",False),
	(207,"LBM EUROFINS LABAZUR NICE SITE CASSIN","54 BD RENE CASSIN 06000 NICE",93,"7.22268444560662","43.6714555775262","Sur place","Tout public","","Sur rendez-vous uniquement","0493967629","https://www.eurofins-biologie-medicale.com/",False),
	(208,"LBM EUROFINS LABAZUR NICE SITE FLORETTE","98 AV JEAN MONNET 06500 MENTON",93,"7.48585088582451","43.7658263298388","Sur place","Tout public","","Sur rendez-vous uniquement","0492104747","https://www.eurofins-biologie-medicale.com/",False),
	(209,"LBM EUROFINS LABAZUR NICE SITE CONTES","PL DU DOCTEUR OLLIVIER 06390 CONTES",93,"7.31466250681739","43.8103996619401","Sur place/En EHPAD","Tout public","","Sur rendez-vous uniquement","0493792882","https://www.eurofins-biologie-medicale.com/",False),
	(210,"LBM BIOESTEREL SITE - Mandelieu - Les Termes","405 AV DE CANNES 06210 MANDELIEU LA NAPOULE",93,"6.93714385825298","43.5436233806482","Drive/Sur place/A domicile/En EHPAD/En étab. santé","Tout public","","Sur rendez-vous uniquement","0493492405","https://covid19.biogroup.fr.",False),
	(211,"LBM BIOESTEREL SITE MANDELIEU PASERO","583 AV JANVIER PASERO 06210 MANDELIEU LA NAPOULE",93,"6.93767549693725","43.5514622027505","A domicile/En EHPAD/En étab. santé","Tout public","","Sur rendez-vous uniquement","0493492173","https://covid19.biogroup.fr.",False),
	(212,"LBM BIOESTEREL SITE Châteauneuf","22 PL DES PINS 06740 CHATEAUNEUF GRASSE",93,"6.97312119895098","43.6806525968024","Sur place/A domicile/En EHPAD/En étab. santé","Tout public","","Sur rendez-vous uniquement","04.93.42.71.61","https://covid19.biogroup.fr.",False),
	(213,"LBM BIOESTEREL SITE ROQUEFORT LES PINS","4061 RTE DPT 2085 06330 ROQUEFORT LES PINS",93,"7.04932343854336","43.6667864548589","A domicile/En EHPAD/En étab. santé","Tout public","","Sur rendez-vous uniquement","0493776275","https://covid19.biogroup.fr.",False),
	(214,"LBM BIOESTEREL SITE - Saint-Martin du Var","RTE 202 QUARTIER LA DIGUE 06670 ST MARTIN DU VAR",93,"7.19060511108801","43.818526345915","Drive/Sur place/A domicile/En EHPAD/En étab. santé","Tout public","","Sur rendez-vous uniquement","Accueil 1 : 04.93.08.91.07 Accueil 2 : 04 93 08 91  83","https://covid19.biogroup.fr.",False),
	(215,"LBM BIOESTEREL SITE CARROS","2 R EUSIERE 06510 CARROS",93,"7.19262040483757","43.7729019864415","Drive/A domicile/En EHPAD/En étab. santé/Sur place","Tout public","","Sur rendez-vous uniquement","04 93 08 71 35","https://covid19.biogroup.fr.",False),
	(216,"LBM BIOESTEREL SITE PEGOMAS","76 BD MOURACHONNE 06580 PEGOMAS",93,"6.93009288811367","43.5937813343665","A domicile/En EHPAD/En étab. santé","Tout public","","Sur rendez-vous uniquement","0493407485","https://covid19.biogroup.fr.",False),
	(217,"LBM BIOESTEREL SITE - Le Cannet - Vieux Cannet","3 R DES MICHELS 06110 LE CANNET",93,"7.01751082701573","43.5756285311075","Drive/Sur place/A domicile/En étab. santé/En EHPAD","Tout public","","Sur rendez-vous uniquement","04.93.94.78.78","https://covid19.biogroup.fr.",False),
	(218,"LBM BIOESTEREL SITE ANTIBES VAUTRIN","15 AV GENERAL VAUTRIN 06160 ANTIBES",93,"7.1184699982092","43.5862637536498","Drive/Sur place/A domicile/En EHPAD/En étab. santé","Tout public","","Sur rendez-vous uniquement","0493658555","https://covid19.biogroup.fr.",False),
	(219,"LBM BIOESTEREL SITE Biot","495 RTE DE LA MER 06410 BIOT",93,"7.10306192782193","43.624668835919","Sur place/A domicile/En EHPAD/En étab. santé","Tout public","","Sur rendez-vous uniquement","04.92.91.59.20","https://covid19.biogroup.fr.",False),
	(220,"LBM BIOESTEREL SITE CANNES OXFORD","33 BD D'OXFORD 06150 CANNES",93,"7.02776022667177","43.5647249795324","A domicile/En EHPAD/En étab. santé","Tout public","","Sur rendez-vous uniquement","0493999625","https://covid19.biogroup.fr.",False),
	(221,"LBM BIOESTEREL SITE CANNES CARNOT","67 BD CARNOT 06150 CANNES",93,"7.01668622667925","43.5596417958759","A domicile/En EHPAD/En étab. santé","Tout public","","Sur rendez-vous uniquement","04 93 99 98 50","https://covid19.biogroup.fr.",False),
	(222,"LBM BIOESTEREL SITE Vence - Foch","42 BD MARECHAL FOCH 06140 VENCE",93,"7.10622909751795","43.7233512296802","Drive/Sur place/A domicile/En EHPAD/En étab. santé","Tout public","","Sur rendez-vous uniquement","04.93.58.13.42","https://covid19.biogroup.fr.",False),
	(223,"LBM BIOESTEREL SITE CANNES REPUBLIQUE","40 BD DE LA REPUBLIQUE 06150 CANNES",93,"7.02374847190299","43.5562278158647","A domicile/En EHPAD/En étab. santé/Sur place","Tout public","","Sur rendez-vous uniquement","0493997671","https://covid19.biogroup.fr.",False),
	(224,"LBM BIOESTEREL SITE Mougins - L'Espérance","80 ALL DES ORMES 06250 MOUGINS",93,"7.01346623932508","43.6108898731921","Drive/Sur place/A domicile/En EHPAD/En étab. santé","Tout public","","Sur rendez-vous uniquement","04.92.28.20.00","https://covid19.biogroup.fr.",False),
	(225,"LBM BIOESTEREL SITE LE CANNET ROCHEVIL","15 AV MAURICE JEAN PIERRE 06110 LE CANNET",93,"7.00623767740779","43.573759697716","A domicile/En EHPAD/En étab. santé/Sur place","Tout public","","Sur rendez-vous uniquement","0493698981","https://covid19.biogroup.fr.",False),
	(226,"LBM BIOESTEREL SITE SAINT LAURENT GENERAL LECLERC","80 AV DU GENERAL LECLERC 06700 ST LAURENT DU VAR",93,"7.19026035662204","43.6721860982974","A domicile/En EHPAD/En étab. santé","Tout public","","Sur rendez-vous uniquement","0493319525","https://covid19.biogroup.fr.",False),
	(227,"LBM BIOESTEREL SITE VENCE GRAND JARDIN","PL DU GRAND JARDIN 06140 VENCE",93,"7.11217358609514","43.7223400513269","A domicile","Tout public","","Sur rendez-vous uniquement","0493240791","https://covid19.biogroup.fr.",False),
	(228,"LBM BIOESTEREL SITE ANTIBES SOLEAU","24 AV ROBERT SOLEAU 06160 ANTIBES",93,"7.12058095519316","43.5821598487754","A domicile/En EHPAD/En étab. santé","Tout public","","Sur rendez-vous uniquement","0493346656","https://covid19.biogroup.fr.",False),
	(229,"LBM BIOESTEREL SITE ANTIBES 4 CHEMINS","828 CHE DES QUATRE CHEMINS 06160 ANTIBES",93,"7.11382642832664","43.6031035470703","A domicile/En EHPAD/En étab. santé/Sur place","Tout public","","Sur rendez-vous uniquement","0492904901","https://covid19.biogroup.fr.",False),
	(230,"LBM BIOESTEREL SITE ANTIBES FOCH","8 BD FOCH 06160 ANTIBES",93,"7.11941889646974","43.5791127113441","A domicile/En EHPAD/En étab. santé","Tout public","","Sur rendez-vous uniquement","0492904949","https://covid19.biogroup.fr.",False),
	(231,"LBM BIOESTEREL SITE FERRAGE","29 BD DE LE FERRAGE 06150 CANNES",93,"7.01405456218539","43.5532617258501","Drive/A domicile/En EHPAD/En étab. santé/Sur place","Tout public","","Sur rendez-vous uniquement","0492993536","https://covid19.biogroup.fr.",False),
	(232,"LBM BIOESTEREL SITE Vallauris -  Tapis Vert","16 AV DU TAPIS VERT 06220 VALLAURIS",93,"7.05746681843188","43.5772158847514","Drive/Sur place/A domicile/En EHPAD/En étab. santé","Tout public","","Sur rendez-vous uniquement","(04) 93 64 96 00","https://covid19.biogroup.fr.",False),
	(233,"LBM BIOESTEREL SITE  - Cannes - Ranguin","3 AV VICTOR HUGO 06150 CANNES",93,"6.96633128622442","43.5691059487681","Drive/Sur place/En EHPAD/A domicile/En étab. santé","Tout public","","Sur rendez-vous uniquement","04 93 39 76 76","https://covid19.biogroup.fr.",False),
	(234,"LBM BIOESTEREL SITE VALBONNE","6 PL DE LA VIGNASSE 06560 VALBONNE",93,"7.00639421970959","43.6418920042607","Drive/Sur place/A domicile/En EHPAD/En étab. santé","Tout public","","Sur rendez-vous uniquement","04.93.12.26.61","https://covid19.biogroup.fr.",False),
	(235,"LBM BIOESTEREL SITE ANTIBES CROIX ROUGE","RTE GRASSE QUA LA CROIX ROUGE 06160 ANTIBES",93,"7.08801782910399","43.6000060607429","Sur place/A domicile/En EHPAD/En étab. santé","Tout public","","Sur rendez-vous uniquement","04 93 33 24 19","https://covid19.biogroup.fr.",False),
	(236,"LBM BIOESTEREL SITE GOLFE JUAN","76 AV DE LA LIBERTE 06220 VALLAURIS",93,"7.07224501541292","43.5678105381824","A domicile/En EHPAD/En étab. santé/Sur place","Tout public","","Sur rendez-vous uniquement","04 93 63 43 44","https://covid19.biogroup.fr.",False),
	(237,"LBM BIOESTEREL SITE JUAN LES PINS","15 AV DE L'ESTEREL LE MONTANA 06160 ANTIBES",93,"7.12509760064443","43.580423254734","A domicile/En EHPAD/En étab. santé","Tout public","","Sur rendez-vous uniquement","04 93 61 01 01","https://covid19.biogroup.fr.",False),
	(238,"LBM BIOESTEREL SITE Cannes - La Bocca","70 AV FRANCIS TONER 06150 CANNES",93,"6.97847912380256","43.5495895551677","Drive/Sur place/A domicile/En EHPAD/En étab. santé","Tout public","","Sur rendez-vous uniquement","04.92.19.42.42","https://covid19.biogroup.fr.",False),
	(239,"LBM BIOESTEREL SITE Le Cannet - La Palestre","350 AV POMPIDOU 06110 LE CANNET",93,"6.9869588927654","43.5698292291072","Drive/Sur place/A domicile/En EHPAD/En étab. santé","Tout public","","Sur rendez-vous uniquement","04 93 46 32 32","https://covid19.biogroup.fr.",False),
	(240,"LBM BIOESTEREL SITE LE CANNET MAURICE JEAN-PIERRE","8 AV DES ECOLES 06110 LE CANNET",93,"7.00626812799587","43.5704522494692","A domicile/En EHPAD/En étab. santé/Sur place","Tout public","","Sur rendez-vous uniquement","04 93 69 10 50","https://covid19.biogroup.fr.",False),
	(241,"LBM BIOESTEREL SITE LE CANNET ROOSEVELT","44 AV F ROOSEVELT 06110 LE CANNET",93,"7.00169710292057","43.5717110144512","A domicile/En EHPAD/En étab. santé/Sur place","Tout public","","Sur rendez-vous uniquement","04 93 45 24 51","https://covid19.biogroup.fr.",False),
	(242,"LBM BIOESTEREL SITE  - Val de Mougins","56 AV MARECHAL JUIN 06250 MOUGINS",93,"6.98714192620258","43.5970810885581","Drive/Sur place/A domicile/En EHPAD/En étab. santé","Tout public","","Sur rendez-vous uniquement","04.93.90.00.70","https://covid19.biogroup.fr.",False),
	(243,"LBM BIOESTEREL SITE ST JEANNET","2530 RTE DE VENCE - LE PEYRON 06640 ST JEANNET",93,"7.14441762912561","43.7452762178063","A domicile/En EHPAD/En étab. santé","Tout public","","Sur rendez-vous uniquement","04 92 11 01 04","https://covid19.biogroup.fr.",False),
	(244,"LBM BIOESTEREL SITE CAGNES VAL FLEURI","48 CHE DU VAL FLEURI 06800 CAGNES SUR MER",93,"7.17154717789199","43.6647684601722","Drive/Sur place/A domicile/En EHPAD/En étab. santé","Tout public","","Sur rendez-vous uniquement","04.93.07.68.32","https://covid19.biogroup.fr.",False),
	(245,"LBM BIOESTEREL SITE GRASSE 4 Chemins","4 BD EMMANUEL ROUQUIER 06130 GRASSE",93,"6.94023663291107","43.6448629379716","A domicile/En EHPAD/En étab. santé/Sur place","Tout public","","Sur rendez-vous uniquement","04 93 70 68 00","https://covid19.biogroup.fr.",False),
	(246,"LBM BIOESTEREL SITE GRASSE JEU DE BALLON","27 BD DU JEU DE BALLON 06130 GRASSE",93,"6.92225788539084","43.6596333959496","A domicile/En EHPAD/En étab. santé","Tout public","","Sur rendez-vous uniquement","04 93 36 01 59","https://covid19.biogroup.fr.",False),
	(247,"LBM BIOESTEREL SITE Plan de Grasse","7 AV JEAN CUMERO 06130 GRASSE",93,"6.95883862463502","43.6414361880955","Drive/Sur place/A domicile/En EHPAD/En étab. santé","Tout public","","Sur rendez-vous uniquement","04.93.40.85.85","https://covid19.biogroup.fr.",False),
	(248,"LBM BIOESTEREL SITE MOUANS SARTOUX","351 CHE DES GOURETTES INDES BT B 06370 MOUANS SARTOUX",93,"6.9534659598947","43.6074045452002","A domicile/En EHPAD/En étab. santé/Sur place","Tout public","","Sur rendez-vous uniquement","04 93 75 73 12","https://covid19.biogroup.fr.",False),
	(249,"LBM BIOESTEREL SITE ST ANDRE DE LA ROCHE","109 QU DE LA BANQUIERE 06730 ST ANDRE DE LA ROCHE",93,"7.28678018254846","43.7417352225927","A domicile/En EHPAD/En étab. santé","Tout public","","Sur rendez-vous uniquement","04 28 27 00 40","https://covid19.biogroup.fr.",False),
	(250,"LBM BIOESTEREL SITE GRASSE CLINIQUE PALAIS","25 AV CHIRIS 06130 GRASSE",93,"6.92959156170774","43.6573882483459","A domicile/En EHPAD/En étab. santé","Tout public","","Sur rendez-vous uniquement","04 93 09 79 90","https://covid19.biogroup.fr.",False),
	(251,"LBM BIOESTEREL SITE PEYMEINADE","39 AV DE BOUTINY 06530 PEYMEINADE",93,"6.88157986004857","43.6432978464446","Drive/Sur place/A domicile/En EHPAD/En étab. santé","Tout public","","Sur rendez-vous uniquement","04.93.66.41.10","https://covid19.biogroup.fr.",False),
	(252,"LBM BIOESTEREL SITE NICE LYAUTEY","145 AV DU MARECHAL LYAUTEY 06000 NICE",93,"7.28456012452074","43.7201648707755","Drive/Sur place/A domicile/En EHPAD/En étab. santé","Tout public","","Sur rendez-vous uniquement","04.93.80.20.00","https://covid19.biogroup.fr.",False),
	(253,"LBM BIOESTEREL SITE NICE REPUBLIQUE","32 AV DE LA REPUBLIQUE 06000 NICE",93,"7.28181393560889","43.7038917968063","A domicile/En EHPAD/En étab. santé","Tout public","","Sur rendez-vous uniquement","04 93 89 48 48","https://covid19.biogroup.fr.",False),
	(254,"LBM BIOESTEREL SITE Villefranche-sur-Mer","9 R ALBERT 1ER 06230 VILLEFRANCHE SUR MER",93,"7.30909179218144","43.7034738743651","Sur place/Drive/A domicile/En EHPAD/En étab. santé","Tout public","","Sur rendez-vous uniquement","04.93.01.88.66","https://covid19.biogroup.fr.",False),
	(255,"LBM BIOESTEREL SITE NICE L'ARIANE","75 BD DE L'ARIANE 06000 NICE",93,"7.29845466289183","43.7349411314475","Drive/Sur place/A domicile/En EHPAD/En étab. santé","Tout public","","Sur rendez-vous uniquement","04.93.54.93.93","https://covid19.biogroup.fr.",False),
	(256,"LBM BIOESTEREL SITE CAGNES SUR MER","34 BD MARECHAL JUIN 06800 CAGNES SUR MER",93,"7.15076839994538","43.6586783012604","A domicile/En EHPAD/En étab. santé","Tout public","","Sur rendez-vous uniquement","0493224682","https://covid19.biogroup.fr.",False),
	(257,"LBM BIOESTEREL SITE VILLENEUVE LOUBET","51 CHE DU PAS DE BONNE-HEURE 06270 VILLENEUVE LOUBET",93,"7.1232886423386","43.6573674287135","A domicile/En EHPAD/En étab. santé/Sur place","Tout public","","Sur rendez-vous uniquement","0493225810","https://covid19.biogroup.fr.",False),
	(258,"LBM BIOESTEREL SITE LA COLLE SUR LOUP","250 AV DE VERDUN 06480 LA COLLE SUR LOUP",93,"7.10445840616754","43.6890395775539","A domicile/En EHPAD/En étab. santé","Tout public","","Sur rendez-vous uniquement","0493325438","https://covid19.biogroup.fr.",False),
	(259,"LBM BIOESTEREL SITE NICE ST MARGUERITE","185 AV STE  MARGUERITE 06000 NICE",93,"7.20596894356989","43.6816138403758","Drive/Sur place/A domicile/En EHPAD/En étab. santé","Tout public","","Sur rendez-vous uniquement","04.93.72.06.16","https://covid19.biogroup.fr.",False),
	(260,"LBM BIOESTEREL SITE NICE JEAN JAURES","24 BD JEAN JAURES 06000 NICE",93,"7.27630138047472","43.6982089231518","A domicile/En EHPAD/En étab. santé","Tout public","","Sur rendez-vous uniquement","","https://covid19.biogroup.fr.",False),
	(261,"LBM BIOESTEREL SITE -  Nice - La Fontaine","10 PL DES FONTAINES DU TEMPLE 06000 NICE",93,"7.25377268462848","43.7245029563947","Drive/Sur place/A domicile/En EHPAD/En étab. santé","Tout public","","Sur rendez-vous uniquement","04.93.84.11.62","https://covid19.biogroup.fr.",False),
	(262,"LBM BIOESTEREL SITE DRAGUIGNAN CLEMENCEAU","19 BD CLEMENCEAU 83300 DRAGUIGNAN",93,"6.46517053490847","43.5361053478234","A domicile/En EHPAD/En étab. santé/Sur place","Tout public","","Sur rendez-vous uniquement","0494509659","https://covid19.biogroup.fr.",False),
	(263,"LBM BIOESTEREL SITE FREJUS TASSIGNY","1637 AV DE LATTRE DE TASSIGNY 83370 FREJUS",93,"6.76235011036451","43.4291130296492","A domicile/En EHPAD/En étab. santé","Tout public","","Sur rendez-vous uniquement","0494512912","https://covid19.biogroup.fr.",False),
	(264,"LBM BIOESTEREL SITE Draguignan - Notre Dame","345 AV BROSSOLETTE 83300 DRAGUIGNAN",93,"6.45235104381849","43.5331045141883","Sur place/A domicile/En EHPAD/En étab. santé","Tout public","","Sur rendez-vous uniquement","04.94.67.46.69","https://covid19.biogroup.fr.",False),
	(265,"LBM BIOESTEREL SITE LORGUES","ZONE LE VERGER DES FERRAGES 83510 LORGUES",93,"6.35903186898048","43.4914316002745","A domicile/En EHPAD/En étab. santé","Tout public","","Sur rendez-vous uniquement","0494604777","https://covid19.biogroup.fr.",False),
	(266,"LBM BIOESTEREL SITE SAINT AYGULF EMERAUDE","164 AV LUCIEN BOEUF 83370 FREJUS",93,"6.72210559972784","43.3829602359177","A domicile/En EHPAD","Tout public","","Sur rendez-vous uniquement","0494817202","https://covid19.biogroup.fr.",False),
	(267,"LBM BIOESTEREL SITE SALERNES","21 R JEAN JACQUES ROUSSEAU 83690 SALERNES",93,"6.23050690124801","43.5647421109482","Drive/Sur place/A domicile/En EHPAD/En étab. santé","Tout public","","Sur rendez-vous uniquement","04.94.60.47.80","https://covid19.biogroup.fr.",False),
	(268,"LBM BIOESTEREL SITE  - Saint-Raphaël - Valescure","265 AV DE VALESCURE 83530 ST RAPHAEL",93,"6.77138390092644","43.4277359059066","Drive/Sur place/A domicile/En étab. santé/En EHPAD","Tout public","","Sur rendez-vous uniquement","04.98.11.02.40","https://covid19.biogroup.fr.",False),
	(269,"LBM BIOESTEREL SITE ST RAPHAEL EPSILON","LOT EPSILON II 83530 ST RAPHAEL",93,"6.76836885842198","43.4251947052683","A domicile/En EHPAD/En étab. santé","Tout public","","Sur rendez-vous uniquement","","https://covid19.biogroup.fr.",False),
	(270,"LBM BIOESTEREL SITE Fréjus - Millenium","1373 AV DE PROVENCE 83370 FREJUS",93,"6.75321408836504","43.4269415844451","Drive/Sur place/A domicile/En EHPAD/En étab. santé","Tout public","","Sur rendez-vous uniquement","04 94 51 13 76","https://covid19.biogroup.fr.",False),
	(271,"LBM BIOESTEREL SITE FREJUS ARISTIDE BRIAND","47 R ARISTIDE BRIAND 83370 FREJUS",93,"6.73808748143246","43.4323276273642","A domicile/En EHPAD/En étab. santé/Sur place","Tout public","","Sur rendez-vous uniquement","","https://covid19.biogroup.fr.",False),
	(272,"LBM BIOESTEREL SITE ST RAPHAEL MARTIN","51 BD FELIX MARTIN 83530 ST RAPHAEL",93,"6.76755402376418","43.4233388524564","A domicile/En EHPAD/En étab. santé/Sur place","Tout public","","Sur rendez-vous uniquement","","https://covid19.biogroup.fr.",False),
	(273,"LBM BIOESTEREL SITE ROQUEBRUNE SUR ARGENS","2 LOT SAINT PIERRE 83380 ROQUEBRUNE SUR ARGENS",93,"6.64319262276725","43.4445431859018","A domicile/En EHPAD/En étab. santé/Sur place","Tout public","","Sur rendez-vous uniquement","","https://covid19.biogroup.fr.",False),
	(274,"LBM BIOESTEREL SITE Hyères - La Gare","45 AV EDITH CAWELL 83400 HYERES",93,"6.12476969959485","43.1093074429108","Drive/Sur place/En EHPAD/A domicile/En étab. santé","Tout public","","Sur rendez-vous uniquement","04.94.27.84.85","https://covid19.biogroup.fr.",False),
	(275,"LBM BIOESTEREL SITE LA LONDE","81 BD AZAN LES ROMARINS 83250 LA LONDE LES MAURES",93,"6.26775016994007","43.1669708257116","Drive/Sur place/A domicile/En EHPAD/En étab. santé","Tout public","","Sur rendez-vous uniquement","04.94.66.88.26","https://covid19.biogroup.fr.",False),
	(276,"LBM BIOESTEREL SITE CAVALAIRE","AV DES ALLIES LE CADUCEE 83240 CAVALAIRE SUR MER",93,"6.52817131209046","43.1712818322832","Drive/Sur place/A domicile/En EHPAD/En étab. santé","Tout public","","Sur rendez-vous uniquement","04.94.64.00.98","https://covid19.biogroup.fr.",False),
	(277,"LBM BIOESTEREL SITE LA CROIX VALMER","R LOUIS MARTIN 83420 LA CROIX VALMER",93,"6.56830492812689","43.2080346340645","A domicile/En EHPAD/En étab. santé","Tout public","","Sur rendez-vous uniquement","","https://covid19.biogroup.fr.",False),
	(278,"LBM BIOESTEREL SITE LE PRADET","127 AV DE LA 1ERE DFL 83220 LE PRADET",93,"6.02056373762525","43.1066308915387","A domicile/En EHPAD/En étab. santé","Tout public","","Sur rendez-vous uniquement","","https://covid19.biogroup.fr.",False),
	(279,"LBM BIOESTEREL SITE TOULON ROOSEVELT","185 AV FRANKLIN ROOSEVELT 83000 TOULON",93,"5.93931487722909","43.1200158497177","A domicile/En EHPAD","Tout public","","Sur rendez-vous uniquement","","https://covid19.biogroup.fr.",False),
	(280,"LBM BIOESTEREL SITE PUGET SUR ARGENS","569 R DU GENERAL DE GAULLE 83480 PUGET SUR ARGENS",93,"6.69041225305181","43.4530928587874","A domicile/En EHPAD/En étab. santé/Sur place","Tout public","","Sur rendez-vous uniquement","0494815122","https://covid19.biogroup.fr.",False),
	(281,"LBM BIOESTEREL SITE LES ARCS","8 PL DE LA LIBERATION 83460 LES ARCS",93,"6.47544717981513","43.4488051386986","A domicile/En EHPAD/En étab. santé/Sur place","Tout public","","Sur rendez-vous uniquement","0494474871","https://covid19.biogroup.fr.",False),
	(282,"LBM BIOESTEREL SITE TOULON BAZEILLES","285 BD BAZEILLES 83000 TOULON",93,"5.93720271874774","43.1118640388512","A domicile/En EHPAD/En étab. santé","Tout public","","Sur rendez-vous uniquement","0494415820","https://covid19.biogroup.fr.",False),
	(283,"LBM BIOESTEREL SITE LE MUY LIBERATION","1170 BD DE LA LIBERATION 83490 LE MUY",93,"6.57056498763783","43.4742329573464","Sur place/A domicile/En EHPAD/En étab. santé","Tout public","","Sur rendez-vous uniquement","04 94 55 16 20","https://covid19.biogroup.fr.",False),
	(284,"LBM BIOESTEREL SITE TOULON PICOT","1208 AV DU COLONEL PICOT 83000 TOULON",93,"5.97002967596584","43.1298727410118","A domicile/En EHPAD/En étab. santé","Tout public","","Sur rendez-vous uniquement","04 94 41 95 70","https://covid19.biogroup.fr.",False),
	(285,"LBM BIOESTEREL SITE LA VALETTE PAUL VALERY","32 Avenue Paul Valery 83160 La Valette-du-Var",93,"5.990986","43.130123","Sur place/A domicile/En EHPAD/En étab. santé","Tout public","","Sur rendez-vous uniquement","0497066261","https://covid19.biogroup.fr.",False),
	(286,"CH DES VALS D'ARDECHE","2 AV PASTEUR 07007 PRIVAS CEDEX",84,"4.58728528220353","44.7317696185637","Drive/Sur place","Tout public","","Sur rendez-vous uniquement","0475202153","",False),
	(287,"EQUIPE MOBILE DE PRELEVEMENT DEPARTEMENTALE","",NULL,NULL,NULL,"Sur place","Tout public","","Sur rendez-vous uniquement","0634091449","",False),
	(288,"LBM BIO ARD'AISNE  SITE RETHEL","R ANTOINE SAINT EXUPERY 08300 RETHEL",44,"4.37157563265413","49.5070652884481","Drive/Sur place","Tout public","","Sur rendez-vous uniquement","0324384964","https://www.ubiclic.com/autre/rethel/drive-prelevement-bio-ard-aisne-rethel",False),
	(289,"LBM BIO ARD'AISNE  SITE CHARLEVILLE MEZIERES","131 AV CARNOT 08000 CHARLEVILLE MEZIERES",44,"4.72494883832109","49.7489955517396","Drive/Sur place","Tout public","","Sur rendez-vous uniquement","0324336868","https://www.ubiclic.com/autre/charleville-mezieres/drive-prelevement-bio-charleville-carnot",False),
	(290,"LBM GIVET","Esplanade Aime et Jules Rivir 08600 Givet",44,"4.81847","50.140039","Sur place/Drive","Tout public","","Sur rendez-vous uniquement","0324423257","",False),
	(291,"LBM BALAN","109 Avenue Charles de Gaulle 08200 Balan",44,"4.966983","49.688162","Sur place","Tout public","","Sur rendez-vous uniquement","0324290242","",False),
	(292,"LBM VOUZIERS","25 R GAMBETTA 08400 VOUZIERS",44,"4.69991752264466","49.3958802551442","Sur place/Drive","Tout public","","Sur rendez-vous uniquement","0324401760","",False),
	(293,"LBM REIMS LUTON","7 Rue de Neufchatel 51100 Reims",44,"4.026113","49.271145","Drive/Sur place","Tout public","","Sur rendez-vous uniquement","0326048170","",False),
	(294,"CH CHARLEVILLE - HOPITAL MANCHESTER","45 AV DE MANCHESTER 08011 CHARLEVILLE MEZIERES CEDEX",44,"4.69511813853849","49.7616857412433","Sur place","Tout public","Mo 09:00 - 14:00;Tu 09:00 - 14:00;We 09:00 - 14:00;Th 09:00 - 14:00;Fr 09:00 - 14:00;Sa 09:00 - 14:00;Su 09:00 - 14:00","","","",False),
	(295,"LBM ARIEGE BIOLOGIE MEDICALE ST-GIRONS","16 AV HENRI BERNERE 09200 ST GIRONS",76,"1.14360347771321","42.9871261091609","Drive/Sur place","Tout public","","Sur rendez-vous uniquement","0561662118","",False),
	(296,"LBM ARIEGE BIOLOGIE MEDICALE PAMIERS","8 R SAINT VINCENT 09100 PAMIERS",76,"1.60715438850831","43.1127148684673","Drive/Sur place","Tout public","","Sur rendez-vous uniquement","0561671401","",False),
	(297,"GCS BIOLOGIE TERRITOIRE DE L ARIEGE - FOIX","09000 FOIX",76,"1.6052418748859","42.9641109387251","Sur place","Tout public","","24/24 aux urgences du chiva","","",False),
	(298,"GCS BIOLOGIE TERRITOIRE DE L ARIEGE - ST GIRONS","09201 ST GIRONS CEDEX",76,"1.14609274721","42.9828555580486","Sur place","Tout public","","24/24 aux urgences du CHAC","0561962811","",False),
	(299,"CHIVAL SITE FOIX","CHE DU BARRAU 09000 FOIX",76,"1.6052418748859","42.9641109387251","Sur place","Tout public","","","05 61 03  31 00","",False),
	(300,"CENTRE HOSPITALIER DE TROYES","101 AV ANATOLE FRANCE 10003 TROYES CEDEX",44,"4.06881061786514","48.279896709454","Sur place","Tout public","","Sur rendez-vous uniquement","0325497778","",False),
	(301,"LBM DYNALAB  SITE TROYES","Bd General Charles Delestraint 10000 Troyes",44,"4.073263","48.289078","Sur place","Tout public","","Sur rendez vous uniquement","03 25 43 47 20","https://www.doctolib.fr/laboratoire/troyes/dynalab-troyes?pid=practice-27117",False),
	(302,"CENTRE SANTE CHAPELAIN","42 Avenue Jean Moulin 10600 La Chapelle-Saint-Luc",44,"4.035374","48.308588","Sur place","Tout public","","Sur rendez vous uniquement","03 25 71 70 63","",False),
	(303,"IDE LIBERAUX","1 Place Georges Clemenceau 10370 Villenauxe-la-Grande",44,"3.553385","48.589495","Sur place","Tout public","","Sur rendez vous uniquement","06 08 16 05 52 ou 03 25 24 17 15","",False),
	(304,"IDE LIBERAUX","1 Place Georges Clemenceau 10370 Villenauxe-la-Grande",44,"3.553385","48.589495","Sur place","Tout public","","Sur rendez-vous uniquement","03 25 21 52 40","",False),
	(305,"IDE LIBERAUX","6 bis Rue du Stade 10110 Bar-sur-Seine",44,"4.373033","48.120063","Sur place","Tout public","","Sur rendez-vous uniquement","03 25 29 82 41","",False),
	(306,"IDE LIBERAUX","Rue Docteur Georgel 10160 Aix-Villemaur-Pâlis",44,"3.740198","48.222348","Sur place","Tout public","","Sur rendez-vous uniquement","06 62 22 13 47","",False),
	(307,"IDE LIBERAUX","1 Avenue de la République 10140 Vendeuvre-sur-Barse",44,"4.485879","48.238526","Sur place","Tout public","","Sur rendez-vous uniquement","0325731417","",False),
	(308,"IDE LIBERAUX","5 Rue du Jard 10200 Bar-sur-Aube",44,"4.70215","48.235536","Sur place","Tout public","","Sur rendez-vous uniquement","03 25 92 53 30","",False),
	(309,"IDE LIBERAUX","14 Rue Jean Moulin 10100 Romilly-sur-Seine",44,"3.721256","48.516425","Sur place","Tout public","","Sur rendez-vous uniquement","07 49 44 70 47","",False),
	(310,"IDE LIBERAUX","21 Rue du Canal Terray 10400 Nogent-sur-Seine",44,"3.4897","48.485708","Sur place","Tout public","","Sur rendez-vous uniquement","07 86 99 74 02","",False),
	(311,"IDE LIBERAUX","Rue Georges Flizot 10170 Méry-sur-Seine",44,"3.902366","48.511734","Sur place","Tout public","","Sur rendez-vous uniquement","06 35 58 07 96","",False),
	(312,"IDE LIBERAUX","1 Place Georges Clemenceau 10370 Villenauxe-la-Grande",44,"3.553385","48.589495","Sur place","Tout public","","Sur rendez-vous uniquement","03 25 25 78 49","",False),
	(313,"LBM  DYNALAB","23 R DE L'HOTEL DIEU 10400 NOGENT SUR SEINE",44,"3.50058470536928","48.4934196262158","Sur place","Tout public","","Sur rendez-vous uniquement","0325390298","",False),
	(314,"LBM BIOLINE UNILABS  SITE TROYES","28 AV DU 1ER MAI 10000 TROYES",44,"4.08929332594268","48.3043432996935","Sur place","Tout public","","Sur rendez-vous uniquement","0325721132","",False),
	(315,"LBM BIOLINE UNILABS BRIENNE","98 R DE L'ECOLE MILITAIRE 10500 BRIENNE LE CHATEAU",44,"4.5261717943116","48.3938168556489","Sur place","Tout public","","Sur rendez-vous uniquement","0351255055","",False),
	(316,"LBM CERBALLIANCE LANGUEDOC LAVELANET","24 AV DR BERDANAC 09300 LAVELANET",76,"1.85148185238259","42.9376390913903","Drive/Sur place","Tout public","","Sur rendez-vous uniquement","0534090090","",False),
	(317,"LBM CERBALLIANCE LANGUEDOC  QUILLAN","6 PL SALENGRO 11500 QUILLAN",76,"2.18091560028569","42.8737741965715","Drive/Sur place","Tout public","","Sur rendez-vous uniquement","0468200597","",False),
	(318,"LBM CERBALLIANCE LANGUEDOC LIBERTE CAS","30 PL DE LA LIBERTE 11400 CASTELNAUDARY",76,"1.95317597345987","43.3193666802412","Drive/Sur place","Tout public","","Sur rendez-vous uniquement","0468234786","",False),
	(319,"LBM CERBALLIANCE LANGUEDOC PORT CASTEL","7 QU DU PORT 11400 CASTELNAUDARY",76,"1.95338139882462","43.3155172352856","Drive/Sur place","Tout public","","Sur rendez-vous uniquement","0468233030","",False),
	(320,"LBM CERBALLIANCE LANGUEDOC VILLEFRANCHE","4 AV DU  GENERAL SARRAIL 31290 VILLEFRANCHE DE LAURAGAIS",76,"1.71532820336136","43.398829661737","Drive/Sur place","Tout public","","Sans rendez-vous","0561816152","",False),
	(321,"LBM SELARL BIOD'OC PAMIERS","11 RTE DE FOIX 09100 PAMIERS",76,"1.62093417336545","43.1034646437426","Sur place","Tout public","","Sur rendez-vous uniquement","0561670984","",False),
	(322,"LBM SELARL BIOD'OC FOIX","10 AV GENERAL DE GAULLE 09000 FOIX",76,"1.60897849968034","42.9626806457993","Sur place","Tout public","","","0534093390","",False),
	(323,"LBM BIO D'OC CARCASSONNE BRAM CLINIQUE","92 bis Route de Bram 11000 Carcassonne",76,"2.328145","43.213302","Drive/Sur place","Tout public/Enfants 0-3 ans","","","0468119100","",False),
	(324,"LBM BIO D'OC LIMOUX","16 AV OSCAR ROUGE 11300 LIMOUX",76,"2.2161654333572","43.0561554899881","Sur place","Tout public","","","0468311272","",False),
	(325,"LBM BIO D'OC LEZIGNAN CORBIERES","28 R DES ROMAINS 11200 LEZIGNAN CORBIERES",76,"2.75594315821653","43.1858859773712","Sur place","Tout public","","","0468270093","",False),
	(326,"LBM BIO D'OC TREBES","58 BD DU MINERVOIS 11800 TREBES",76,"2.45622542831534","43.2082772671802","Sur place","Tout public","","","0468788969","",False),
	(327,"LBM BIOD'OC REVEL","",76,"2.00816790427207","43.4575990807848","Sur place","Tout public","","","0561247070","",False),
	(328,"LBM CBL AVICENNE","2 AV MARECHAL JUIN 11000 CARCASSONNE",76,"2.37209183947383","43.2125773823687","Drive/Sur place/A domicile/En EHPAD/En étab. santé","Tout public","","Sur rendez-vous uniquement","0468727970 ou 0468717479","",False),
	(329,"LBM CBL NARBONNE","12 Avenue Pierre et Marie Curie 11100 Narbonne",76,"3.003237","43.179026","Drive/Sur place/En EHPAD/En étab. santé/A domicile","Tout public","","Sur rendez-vous uniquement","0468902989 ou 0672082947","",False),
	(330,"LBM CBL SERIGNAN","1 R JOSEPH LAZARE 34410 SERIGNAN",76,"3.28215160994645","43.2794605609406","Drive/En EHPAD/A domicile/En étab. santé","Tout public","","Sur rendez-vous uniquement","0467324055  0619577468","",False),
	(331,"LBM CBL BEZIERS","17 AV DE LA VOIE DOMITIENNE 34500 BEZIERS",76,"3.24195632880196","43.3465245198284","Drive/Sur place/En EHPAD/En étab. santé","Tout public","","Sur rendez-vous uniquement","0499479797","",False),
	(332,"CH CARCASSONNE","1060 CHE DE LA MADELEINE 11010 CARCASSONNE CEDEX 9",76,"2.39991654241787","43.2191070261999","Sur place","Tout public","","","0468242006 ou 0468242424","",False),
	(333,"CH NARBONNE HOTEL DIEU","BD DOCTEUR LACROIX 11108 NARBONNE CEDEX",76,"3.00011307837999","43.180618452757","Sur place","Tout public","","","0468426100 ou 0468426000","",False),
	(334,"CH MILLAU","265 BD ACHILLE SOUQUES 12101 MILLAU CEDEX",76,"3.05190732983615","44.0929498377714","Sur place","Tout public","","","0565593000","",False),
	(335,"CH EMILE BOREL ST AFFRIQUE","88 AV DR LUCIEN GALTIER 12402 ST AFFRIQUE CEDEX",76,"2.8745294731334","43.958138864729","Sur place","Tout public","","","0565497022","",False),
	(336,"CDS infirmier Réquista","2 Boulevard Vicomtes de Cadars 12170 Réquista",76,"2.537588","44.032288","Sur place","Tout public","","Sur rendez-vous uniquement","05 65 74 04 32","",False),
	(337,"MSP DU CARLADEZ - MUR DE BARREZ","Grand Rue 12600 Mur-de-Barrez",76,"2.660244","44.844106","Sur place","Tout public","","Sur rendez-vous uniquement","05 65 66 03 42","",False),
	(338,"LBM LxBIO RODEZ CENTRE","22 R BETEILLE 12000 RODEZ",76,"2.57296249029546","44.3526455353311","Sur place","Tout public","","Sur rendez-vous uniquement","0565683006","",False),
	(339,"LBM LxBIO LA PRIMAUBE","7 AV DE RODEZ 12450 LUC LA PRIMAUBE",76,"2.55931077725517","44.2932299236717","Sur place","Tout public","","Sur rendez-vous uniquement","05.65.71.47.71","",False),
	(340,"LBM LxBIO BARAQUEVILLE","29 Avenue de Marengo 12160 Baraqueville",76,"2.430161","44.277347","Sur place","Tout public","","Sur rendez-vous uniquement","05 65 71 20 90","",False),
	(341,"LBM LxBIO ESPALION","4 AV D ESTAING 12500 ESPALION",76,"2.76431120773221","44.524639610117","Sur place","Tout public","","Sur rendez-vous uniquement","05.65.48.14.46","",False),
	(342,"LBM LxBIO ONET-LE-CHÂTEAU","6 BD DES CAPUCINES 12000 ONET LE CHATEAU",76,"2.59179401036268","44.3682476590564","Sur place","Tout public","","Sur rendez-vous uniquement","05.65.42.45.04","",False),
	(343,"LBM LxBIO MILLAU JAURÈS","37 AV JEAN JAURES 12100 MILLAU",76,"3.07952516662623","44.1028571188084","Sur place","Tout public","","Sur rendez-vous uniquement","05.65.60.10.13","",False),
	(344,"LBM LxBIO DECAZEVILLE","3 PL CABROL 12300 DECAZEVILLE",76,"2.2543683931783","44.5586806020492","Sur place","Tout public","","Sur rendez-vous uniquement","05.65.43.13.85","",False),
	(345,"LBM LxBIO VILLEFRANCHE-DE-ROUERGUE","PL FONTANGE 12200 VILLEFRANCHE DE ROUERGUE",76,"2.03136108266667","44.3537355039446","Sur place","Tout public","","Sur rendez-vous uniquement","05.65.45.11.37","",False),
	(346,"LBM LxBIO ST-AFFRIQUE","1 PL LONJON RAYNAUD 12400 ST AFFRIQUE",76,"2.88872331753008","43.9576979505584","Sur place","Tout public","","Sur rendez-vous uniquement","05.65.99.06.07","",False),
	(347,"LBM LxBIO SÉVÉRAC D'AVEYRON","AV DU GENERAL DE GAULLE 12150 SEVERAC D AVEYRON",76,"3.0676786569899","44.3197318502553","Sur place","Tout public","","Sur rendez-vous uniquement","05.65.42.13.58","",False),
	(348,"CH DE RODEZ HOPITAL JACQUES PUEL","AV DE L'HOPITAL 12027 RODEZ CEDEX 9",76,"2.554847407305","44.3595617852544","Sur place","Tout public","","","0565552719 ou 0565551212","",False),
	(349,"CH VILLEFRANCHE SITE CHARTREUSE","AV CAYLET 12200 VILLEFRANCHE DE ROUERGUE",76,"2.0321179371098","44.3423354510432","Sur place","Tout public","","","0565653000","",False),
	(350,"SSR CH VILLEFRANCHE SITE RULHE","AV CAYLET 12200 VILLEFRANCHE DE ROUERGUE",76,"2.0321179371098","44.3423354510432","Sur place","Tout public","","","","",False),
	(351,"CPEF CH VILLEFRANCHE DE ROUERGUE","3 Avenue Joseph Caylet 12200 Villefranche-de-Rouergue",76,"2.032329","44.343806","Sur place","Tout public","","","","",False),
	(352,"USLD CH VILLEFRANCHE SITE RULHE","RULHE 12200 VILLEFRANCHE DE ROUERGUE",76,"2.02988489062594","44.3854295475664","Sur place","Tout public","","","","",False),
	(353,"EHPAD CH VILLEFRANCHE SITE CHARTREUSE","R DU BOSQUET 12200 VILLEFRANCHE DE ROUERGUE",76,"2.03433030451992","44.3441265230006","Sur place","Tout public","","","","",False),
	(354,"EHPAD CH VILLEFRANCHE SITE RULHE","RULHE 12200 VILLEFRANCHE DE ROUERGUE",76,"2.02988489062594","44.3854295475664","Sur place","Tout public","","","","",False),
	(355,"CH PIERRE DELPECH DECAZEVILLE","60 AV PROSPER ALFARIC 12300 DECAZEVILLE",76,"2.25186148563113","44.5691231022663","Sur place","Tout public","","","0565437171","",False),
	(356,"SELARL BIO CASAMANCE","33 BD DES FARIGOULES 13400 AUBAGNE",93,"5.53127177949949","43.2762992675956","Sur place","Cas contacts liste CPAM/Tout public - sur ordonnance","","Sur rendez-vous uniquement","0491247050","",False),
	(357,"LABM LEBAN","126 Avenue de Saint Louis 13015 Marseille",93,"5.359212","43.347153","Sur place","Tout public","","Sur rendez-vous uniquement","0491608847","",False),
	(358,"LBM BIOLOGIE MEDICALE SAMBOURG SITE VI - VITROLLES","PL DE LA MAIRIE 13127 VITROLLES",93,"5.25054816964858","43.4594718994761","Sur place","Tout public","","","0442159494","",False),
	(359,"LBM BIOLOGIE MEDICALE SAMBOURG SITE VI - VITROLLES","11 R BEL AIR ZAC DE LA TUILIERE 13127 VITROLLES",93,"5.26920842796216","43.4257022881145","Drive/Sur place","Tout public","","Avec ou sans rendez-vous","0442460006","",False),
	(360,"LBM BIOLOGIE MEDICALE SAMBOURG SITE AI - AIX EN PROVENCE","14 R DE LA FOURANE 13080 AIX EN PROVENCE",93,"5.44555154636005","43.513407910404","Drive/Sur place","Tout public","","Avec ou sans rendez-vous","0442380008","",False),
	(361,"LBM BIOLOGIE MEDICALE SAMBOURG SITE CO","LD FONT PETUGE 13111 COUDOUX",93,"5.2512444401521","43.5580864145366","Drive/Sur place","Tout public","","Avec ou sans rendez-vous","0442159495","",False),
	(362,"LBM BRUNY MEYNARD MATTON PERRAUD  SITE SALON DE PROVENCE","111 R DES FRERES KENNEDY 13300 SALON DE PROVENCE",93,"5.09621716975705","43.6424861693495","Sur place","Tout public","Mo 08:00-12:00,14:00-19:00;Tu 08:00-12:00,14:00-19:00;We 08:00-12:00,14:00-19:00;Th 08:00-12:00,14:00-19:00;Fr 08:00-12:00,14:00-19:00;Sa 08:00-12:00;Su off","","0490561366","",False),
	(363,"LBM LABOSUD PROVENCE BIOLOGIE SITE MAR - MARTIGUES","5 R EDOUARD AMAVET 13117 MARTIGUES",93,"5.05325572567181","43.4014693222101","Sur place","Tout public","","sur rendez vous","04 42 81 65 48","",False),
	(364,"LBM LABOSUD PROVENCE BIOLOGIE SITE FOS","55 R RENE CASSIN BAT LE TITIEN 13270 FOS SUR MER",93,"4.94440291211545","43.4547287806707","Sur place","Tout public","","sur rendez vous","04 42 11 33 00","",False),
	(365,"LBM LABOSUD PROVENCE BIOLOGIE SITE IST - ISTRES","23 R DE LA POUTRE 13118 ISTRES",93,"4.98998221108133","43.5053114463137","Sur place","Tout public","","sur rendez vous","04 42 55 65 65","",False),
	(366,"LBM LABOSUD PROVENCE BIOLOGIE SITE MAR - MARIGNANE","2 AV JEAN JAURES 13700 MARIGNANE",93,"5.21809833410131","43.4182757889423","Sur place","Tout public","","sur rendez vous","04 42 31 71 03","",False),
	(367,"LBM LABOSUD PROVENCE BIOLOGIE SITE MIR - MIRAMAS","23 AV CHARLES DE GAULLE 13140 MIRAMAS",93,"5.00115296146326","43.5823418132811","Sur place","Tout public","","sur rendez vous","04 90 50 38 50","",False),
	(368,"LBM LABOSUD PROVENCE BIOLOGIE SITE MAR - MARSEILLE","581 AV DE MAZARGUES 13009 MARSEILLE",93,"5.39466252437697","43.253112350487","Sur place","Tout public","","sur rendez vous","04 91 77 80 71","",False),
	(369,"LBM LABOSUD PROVENCE BIOLOGIE SITE MIC","429 AV DE MAZARGUES 13008 MARSEILLE",93,"5.39457337650409","43.2586184151982","Sur place","Tout public","","sur rendez vous","04 91 77 75 00","",False),
	(370,"LBM LABOSUD PROVENCE BIOLOGIE SITE MAR - MARSEILLE","14 AV ANDRE ZENATTI 13008 MARSEILLE",93,"5.38240617361436","43.2469506454874","Sur place","Tout public","","sur rendez vous","04 91 73 05 00","",False),
	(371,"LBM LABOSUD PROVENCE BIOLOGIE SITE MAR - MARSEILLE","108 AV DE HAMBOURG 13008 MARSEILLE",93,"5.38922671364434","43.2500208446064","Sur place","Tout public","","sur rendez vous","04 91 73 52 25","",False),
	(372,"LBM LABOSUD PROVENCE BIOLOGIE SITE MAR - MARSEILLE","233 R D'ENDOUME 13007 MARSEILLE",93,"5.35817085765325","43.2842390043836","Sur place","Tout public","","sur rendez vous","04 91 52 02 87","",False),
	(373,"LBM LABOSUD PROVENCE BIOLOGIE SITE MAR - MARSEILLE","172 AV DU 24 AVRIL 1915 13012 MARSEILLE",93,"5.43610056276754","43.308279549558","Sur place","Tout public","","sur rendez vous","04 91 88 25 25","",False),
	(374,"LBM LABOSUD PROVENCE BIOLOGIE SITE MAR - MARSEILLE","21 TRA DES ROSIERS 13014 MARSEILLE",93,"5.38719325097594","43.3228822230156","Sur place","Tout public","","sur rendez vous","04 91 98 22 36","",False),
	(375,"LBM LABOSUD PROVENCE BIOLOGIE SITE MAR - MARSEILLE","50 R PAUL COXE 13015 MARSEILLE",93,"5.37799318718835","43.3464453174691","Sur place","Tout public","","sur rendez vous","04 91 03 06 50","",False),
	(376,"LBM LABOSUD PROVENCE BIOLOGIE SITE DE","47 RTE NATIONALE 13112 LA DESTROUSSE",93,"5.60534051358206","43.376960477417","Sur place","Tout public","","sur rendez vous","04 42 04 87 07","",False),
	(377,"LBM LABOSUD PROVENCE BIOLOGIE SITE AUB - AUBAGNE","2 AV JOSEPH FALLEN 13400 AUBAGNE",93,"5.56599952047718","43.2929621801563","Sur place","Tout public","","sur rendez vous","04 42 36 90 90","",False),
	(378,"LBM LABOSUD PROVENCE BIOLOGIE SITE AUB - AUBAGNE","99 R DE LA REPUBLIQUE 13400 AUBAGNE",93,"5.57207141171191","43.2896433962785","Sur place","Tout public","","sur rendez vous","04 42 72 16 00","",False),
	(379,"LBM LABOSUD PROVENCE BIOLOGIE SITE MAR - MARSEILLE","5 TRA DE LA VERRERIE 13010 MARSEILLE",93,"5.41966455786585","43.2783786471435","Sur place","Tout public","","sur rendez vous","04 91 79 70 67","",False),
	(380,"LBM LABOSUD PROVENCE BIOLOGIE SITE MAR - MARSEILLE","205 AV DE LA CAPELETTE 13010 MARSEILLE",93,"5.40892599115208","43.2802664590902","Sur place","Tout public","","sur rendez vous","04 91 29 74 90","",False),
	(381,"LBM LABOSUD PROVENCE BIOLOGIE SITE MAR - MARSEILLE","98 R DE L AUDIENCE 13011 MARSEILLE",93,"5.48790978250446","43.2956054124185","Sur place","Tout public","","sur rendez vous","0 4 91 43 25 55","",False),
	(382,"LBM LABOSUD PROVENCE BIOLOGIE SITE MAR - MARSEILLE","5 R ROUVIERE 13001 MARSEILLE",93,"5.37945957037326","43.2946753966227","Sur place","Tout public","","sur rendez vous","04 91 33 30 20","",False),
	(383,"LBM LABOSUD PROVENCE BIOLOGIE SITE LA - LA BOUILLADISSE","4 AV DE LA LIBERATION 13720 LA BOUILLADISSE",93,"5.59410959828431","43.3939021425478","Sur place","Tout public","","sur rendez vous","04 42 70 71 90","",False),
	(384,"LBM LABOSUD PROVENCE BIOLOGIE SITE LA - LA PENNE SUR HUVEAUNE","30 BD DE LA GARE 13821 LA PENNE SUR HUVEAUNE",93,"5.5150746161565","43.2836040261983","Sur place","Tout public","","sur rendez vous","04 91 36 13 03","",False),
	(385,"LBM LABOSUD PROVENCE BIOLOGIE SITE POR - PORT ST LOUIS DU RHONE","29 AV DU PORT 13230 PORT ST LOUIS DU RHONE",93,"4.80236340928302","43.3889755952264","Sur place","Tout public","","sur rendez vous","04 42 86 04 14","",False),
	(386,"LBM LABOSUD PROVENCE BIOLOGIE SITE GIG","4 LOT DE LA FONSE QUA FAUCON 13180 GIGNAC LA NERTHE",93,"5.22894583772517","43.3929575559862","Sur place","Tout public","","sur rendez vous","04 42 30 58 17","",False),
	(387,"LBM LABOSUD PROVENCE BIOLOGIE SITE MAR - MARSEILLE","176 AV DU PRADO 13008 MARSEILLE",93,"5.38783268166799","43.2779781013918","Sur place","Tout public","","sur rendez vous","04 91 37 95 59","",False),
	(388,"LBM LABOSUD PROVENCE BIOLOGIE SITE MAR - MARSEILLE","301 AV DU PRADO 13008 MARSEILLE",93,"5.39080253056687","43.2718889831817","Sur place","Tout public","","sur rendez vous","04 91 77 08 94","",False),
	(389,"LBM LABOSUD PROVENCE BIOLOGIE SITE MAR - MARSEILLE","2 R LOUIS MAUREL 13006 MARSEILLE",93,"5.3828805067858","43.2857164262532","Sur place","Tout public","","sur rendez vous","04 91 37 75 56","",False),
	(390,"LBM LABOSUD PROVENCE BIOLOGIE SITE LE - LE ROVE","64 RTE NATIONALE 568 13740 LE ROVE",93,"5.25157217592463","43.3683030403962","Sur place","Tout public","","sur rendez vous","04 91 09 98 19","",False),
	(391,"LBM LABOSUD PROVENCE BIOLOGIE SITE MAR - MARSEILLE","66 TRA SAINT JEAN DU DESERT 13012 MARSEILLE",93,"5.4364993095904","43.2990815906336","Sur place","Tout public","","sur rendez vous","04 91 93 02 40","",False),
	(392,"LBM LABOSUD PROVENCE BIOLOGIE SITE MAR - MARSEILLE","16 R DRAGON 13006 MARSEILLE",93,"5.38131289603077","43.2885057820673","Sur place","Tout public","","sur rendez vous","04 91 53 32 42","",False),
	(393,"LBM LABOSUD PROVENCE BIOLOGIE SITE MAR - MARSEILLE","52 R FRANCIS DAVSO 13001 MARSEILLE",93,"5.37497352127403","43.2928814408181","Sur place","Tout public","","sur rendez vous","04 91 33 06 61","",False),
	(394,"LBM LABOSUD PROVENCE BIOLOGIE SITE MAR - MARSEILLE","14 SQ BELSUNCE 13001 MARSEILLE",93,"5.37631399884625","43.2979935049022","Sur place","Tout public","","sur rendez vous","04 91 91 06 99","",False),
	(395,"LBM LABOSUD PROVENCE BIOLOGIE SITE MAR - MARSEILLE","11 PL BERNARD CADENAT 13003 MARSEILLE",93,"5.38704965648669","43.3124212129063","Sur place","Tout public","","sur rendez vous","04 91 08 03 88","",False),
	(396,"LBM LABOSUD PROVENCE BIOLOGIE SITE MAR - MARSEILLE","82 R ALPHONSE DAUDET 13013 MARSEILLE",93,"5.40917200824215","43.3196254194523","Sur place","Tout public","","sur rendez vous","04 91 66 43 64","",False),
	(397,"LBM LABOSUD PROVENCE BIOLOGIE SITE MAR - MARSEILLE","8 AV DE CHATEAU GOMBERT 13013 MARSEILLE",93,"5.43432955383385","43.3517640588764","Sur place","Tout public","","sur rendez vous","04 91 68 24 92","",False),
	(398,"LBM LABOSUD PROVENCE BIOLOGIE SITE MAR - MARSEILLE","AV ALBERT EINSTEIN 13013 MARSEILLE",93,"5.44162280396515","43.3398444156717","Sur place","Tout public","","sur rendez vous","04 13 42 03 10","",False),
	(399,"LBM LABOSUD PROVENCE BIOLOGIE SITE MAR - MARSEILLE","15 AV FRANCOIS MIGNET 13013 MARSEILLE",93,"5.42727797462985","43.3301798406651","Sur place","Tout public","","sur rendez vous","04 91 06 14 60","",False),
	(400,"LBM LABOSUD PROVENCE BIOLOGIE SITE MAR - MARSEILLE","1 Boulevard de la Concorde 13009 Marseille",93,"5.403315","43.250348","Sur place","Tout public","","sur rendez vous","04 91 40 14 08","",False),
	(401,"LBM LABOSUD PROVENCE BIOLOGIE SITE MIR - MIRAMAS","46 AV CHARLES DE GAULLE 13140 MIRAMAS",93,"5.00165690003578","43.583620486704","Sur place","Tout public","","sur rendez vous","04 90 58 00 35","",False),
	(402,"LBM LABOSUD PROVENCE BIOLOGIE SITE ST - ST CHAMAS","AV DE SAINT EXUPERY 13250 ST CHAMAS",93,"5.03362535942167","43.5534880633856","Sur place","Tout public","","sur rendez vous","04 90 50 70 30","doctolib.fr",False),
	(403,"LBM LABOSUD PROVENCE BIOLOGIE SITE MAR - MARSEILLE","112 PLAG DE L ESTAQUE 13016 MARSEILLE",93,"5.31244687488938","43.3612331250948","Sur place","Tout public","","sur rendez vous","04 91 09 32 72","",False),
	(404,"LBM LABOSUD PROVENCE  BIOLOGIE SITE MA","57 CHE DE SAINT ANTOINE 13015 MARSEILLE",93,"5.35630755050411","43.3691554752988","Sur place","Tout public","","sur rendez vous","04 96 15 81 10","",False),
	(405,"LBM LABOSUD PROVENCE BIOLOGIE SITE MAR - MARTIGUES","14 BD GABRIEL PERI 13117 MARTIGUES",93,"5.0530543993177","43.4110854320019","Sur place","Tout public","","sur rendez vous","04 42 80 15 92","",False),
	(406,"LBM LABOSUD PROVENCE BIOLOGIE SITE MAR - MARTIGUES","ZAC CANTO PERDRIX 13117 MARTIGUES",93,"5.05291686196605","43.4180617411167","Sur place","Tout public","","sur rendez vous","04 42 42 03 03","",False),
	(407,"LBM LABOSUD PROVENCE BIOLOGIE SITE MAR - MARIGNANE","AV DU 8 MAI 1945 13700 MARIGNANE",93,"5.21740496632594","43.4112402925794","Sur place","Tout public","","sur rendez vous","04 42 09 77 31","",False),
	(408,"LBM LABOSUD PROVENCE BIOLOGIE SITE IST - ISTRES","44 CHE DU BORD DE CRAU 13118 ISTRES",93,"4.96244806593392","43.525882883451","Sur place","Tout public","","sur rendez vous","04 42 55 00 08","",False),
	(409,"LBM LABOSUD PROVENCE BIOLOGIE SITE POR - PORT DE BOUC","44 AV MAURICE THOREZ 13110 PORT DE BOUC",93,"4.98039625490853","43.4035392322521","Sur place","Tout public","","sur rendez vous","04 13 29 00 40","",False),
	(410,"LBM LABOSUD PROVENCE BIOLOGIE SITE AIX - AIX EN PROVENCE","CRS MIRABEAU 13080 AIX EN PROVENCE",93,"5.44902355335499","43.5267597533397","Sur place","Tout public","","sur rendez vous","04 42 27 85 74","",False),
	(411,"LBM LABOSUD PROVENCE BIOLOGIE SITE AIX - AIX EN PROVENCE","355 RTE DE BERRE 13080 AIX EN PROVENCE",93,"5.41257265501459","43.5343383348108","Sur place","Tout public","","sur rendez vous","04 42 95 09 95","",False),
	(412,"LBM LABOSUD PROVENCE BIOLOGIE SITE LE - AIX EN PROVENCE","203 DOM DE L'ESCALADE 13080 AIX EN PROVENCE",93,"5.44743354825374","43.5297427296859","Sur place","Tout public","","sur rendez vous","04 42 96 92 12","",False),
	(413,"LBM LABOSUD PROVENCE BIOLOGIE SITE ST - ST MITRE LES REMPARTS","3 R MAROTTE 13920 ST MITRE LES REMPARTS",93,"5.01411542331119","43.4540585006706","Sur place","Tout public","","sur rendez vous","04 42 49 18 12","",False),
	(414,"LBM LABOSUD PROVENCE BIOLOGIE SITE MAR - MARSEILLE","98 BD CHAVE 13005 MARSEILLE",93,"5.39255893920349","43.295230361633","Sur place","Tout public","","sur rendez vous","04 91 47 81 96","",False),
	(415,"LBM LABOSUD PROVENCE BIOLOGIE SITE AUB - AUBAGNE","1320 RTE NATIONALE 8 13400 AUBAGNE",93,"5.59660822581443","43.2830685664051","Sur place","Tout public","","sur rendez vous","04 42 84 10 98","",False),
	(416,"LBM LABOSUD PROVENCE BIOLOGIE SITE VEL","39 R JULES ANDRAUD 13880 VELAUX",93,"5.2582579831559","43.5233059892013","Sur place","Tout public","","sur rendez vous","04 42 34 73 66","",False),
	(417,"LBM LABOSUD PROVENCE BIOLOGIE SITE MAR - MARSEILLE","160 AV DE FRAIS VALLON 13013 MARSEILLE",93,"5.43527479956675","43.3246737602244","Sur place","Tout public","","sur rendez vous","04 13 42 39 00","",False),
	(418,"LBMLABOSUD PROVENCE BIOLOGIE SITE MARS","40 AV DE LA ROSE 13013 MARSEILLE",93,"5.41918451810488","43.3247568644744","Sur place","Tout public","","sur rendez vous","0491666802","",False),
	(419,"LBM SYNLAB PROVENCE SITE MANOSQUE","Avenue du Majoral Raoul Arnaud 04100 Manosque",93,"5.781829","43.830704","Sur place/En EHPAD/En étab. santé","Tout public","","Sur rendez-vous uniquement","0492705875","manosque-centre@provence.synlab.fr",False),
	(420,"LBM SYNLAB PROVENCE SITE GREOUX","14 AV DES ALPES 04800 GREOUX LES BAINS",93,"5.88229926558201","43.7582176161169","Sur place/En EHPAD/En étab. santé","Tout public","","Sur rendez-vous uniquement","0492742422","greoux@provence.synlab.fr",False),
	(421,"LBM SYNLAB PROVENCE SITE FORCALQUIER","R DU SOUVENIR FRANCAIS 04300 FORCALQUIER",93,"5.78001678739651","43.9610350745043","Sur place/En EHPAD/En étab. santé","Tout public","","Sur rendez-vous uniquement","0492750792","forqualcier@provence.synla.fr",False),
	(422,"LBM SYNLAB PROVENCE SITE SAINTE MARTHE","174 CHE DE SAINTE MARTHE 13014 MARSEILLE",93,"5.38778318006248","43.3288793674208","Sur place/En EHPAD/En étab. santé","Tout public","","Sur rendez-vous uniquement","0491981327","sainte-marthe@provence.synlab.fr",False),
	(423,"LBM SYNLAB PROVENCE  SITE LE PUY SAINTE REPARADE","6 AV DU COURS 13610 LE PUY STE REPARADE",93,"5.43472915618788","43.6621313270054","Sur place/En EHPAD/En étab. santé","Tout public","","Sur rendez-vous uniquement","0442619281","le-puy-sainte-reparade@provence.synlab.fr",False),
	(424,"LBM SYNLAB PROVENCE SITE ROGNAC","2 Avenue Charles de Gaulle 13340 Rognac",93,"5.229995","43.488584","Sur place/En EHPAD/En étab. santé","Tout public","","Sur rendez-vous uniquement","0442875110","rognac@provence.synlab.fr",False),
	(425,"LBM SYNLAB PROVENCE VERT COTEAU","93 AV DES CAILLOLS 13012 MARSEILLE",93,"5.43170679313189","43.3036588973363","Sur place/En EHPAD/En étab. santé","Tout public","","Sur rendez-vous uniquement","0491184240","vert-coteau@provence.synlab.fr",False),
	(426,"LBM SYNLAB PROVENCE SITE BRETEUIL","222 R BRETEUIL 13006 MARSEILLE",93,"5.37827252976196","43.2805036662961","Sur place/En EHPAD/En étab. santé","Tout public","","Sur rendez-vous uniquement","0491532491","haut-breteuil@provence.synlab.fr",False),
	(427,"LBM SYNLAB PROVENCE SITE CARRY","AV DRAIO DE LA MAR 13620 CARRY LE ROUET",93,"5.14266184123698","43.3294126921053","Sur place/En EHPAD/En étab. santé","Tout public","","Sur rendez-vous uniquement","0442451745","carry-le-rouet@provence.synlab.fr",False),
	(428,"LBM SYNLAB PROVENCE SITE BOSPHORE","44 BD DU BOSPHORE 13015 MARSEILLE",93,"5.36428382191927","43.3713008329031","Sur place/En EHPAD/En étab. santé","Tout public","","Sur rendez-vous uniquement","0491656717","laboratoire.bosphore@provence.synlab.fr",False),
	(429,"LBM SYNLAB PROVENCE SITE MONTGRAND","9 R MONTGRAND 13006 MARSEILLE",93,"5.37872007876204","43.2916533778904","Sur place/En EHPAD/En étab. santé","Tout public","","Sur rendez-vous uniquement","0491544224","montgrand@provence.synlab.fr",False),
	(430,"LBM SYNLAB PROVENCE SITE AIX MIRABEAU","15 CRS MIRABEAU 13080 AIX EN PROVENCE",93,"5.44705143981708","43.5266980370681","Sur place/En EHPAD/En étab. santé","Tout public","","Sur rendez-vous uniquement","0442264388","mirabeau@provence.synlab.fr",False),
	(431,"LBM SYNLAB PROVENCE SITE AIX CARDINAL","4 Avenue Malherbe 13100 Aix-en-Provence",93,"5.447497","43.524674","Sur place/En EHPAD/En étab. santé","Tout public","","Sur rendez-vous uniquement","0442242626","cardinal@provence.synlab.fr",False),
	(432,"LBM SYNLAB PROVENCE SITE ARTS ET METIERS","1 CRS DES ARTS ET METIERS 13080 AIX EN PROVENCE",93,"5.45390797446784","43.5298359228591","Sur place/En EHPAD/En étab. santé","Tout public","","Sur rendez-vous uniquement","0442990755","arts-et-metiers@provence.synlab.fr",False),
	(433,"LBM SYNLAB PROVENCE SITE SAINT BARNABE","65 AV DE SAINT BARNABE 13012 MARSEILLE",93,"5.4129507805848","43.304302438463","Sur place/En EHPAD/En étab. santé","Tout public","","Sur rendez-vous uniquement","0491039880","saint-barnabe@provence.synlab.fr",False),
	(434,"LBM SYNLAB PROVENCE SITE BELSUNCE","16 CRS BELSUNCE 13001 MARSEILLE",93,"5.37651357826521","43.297992716394","Sur place/En EHPAD/En étab. santé","Tout public","","Sur rendez-vous uniquement","0496113710","belsunce@provence.synlab.fr",False),
	(435,"LBM SYNLAB PROVENCE SITE  MAISON MEDICALE DE PROVENCE","160 Allée Nicolas de Staël 13100 Aix-en-Provence",93,"5.435269","43.503746","Sur place/En EHPAD/En étab. santé","Tout public","","Sur rendez-vous uniquement","0442382236","laboratoire@provence.synlab.fr",False),
	(436,"LBM SYNLAB PROVENCE SITE MAZARGUES","769 AV DE MAZARGUES 13009 MARSEILLE",93,"5.39862411808217","43.248421207174","Sur place/En EHPAD/En étab. santé","Tout public","","Sur rendez-vous uniquement","0491404082","mazargues@provence.synlab.fr",False),
	(437,"LBM SYNLAB PROVENCE SITE DE FUVEAU","2 LOT LE GRAND VALLAT 13710 FUVEAU",93,"5.55561217650004","43.4511150965776","Sur place/En EHPAD/En étab. santé","Tout public","","Sur rendez-vous uniquement","0442587951","fuveau@provence.synlab.fr",False),
	(438,"LBM SYNLAB PROVENCE SITE SAINT-GINIEZ","121 AV DE MAZARGUES 13008 MARSEILLE",93,"5.38972481266415","43.267131357373","Sur place/En EHPAD/En étab. santé","Tout public","","Sur rendez-vous uniquement","0491779875","saint-giniez@provence.synlab.fr",False),
	(439,"LBM SYNLAB PROVENCE SITE REDON","19 BD DU REDON 13009 MARSEILLE",93,"5.41976275158876","43.25655677355","Sur place/En EHPAD/En étab. santé","Tout public","","Sur rendez-vous uniquement","0491173173","redon@provence.synlab.fr",False),
	(440,"LBM SYNLAB PROVENCE SITE ROMAIN ROLLAND","271 BD ROMAIN ROLLAND 13009 MARSEILLE",93,"5.41260719320083","43.2731537558025","Sur place/En EHPAD/En étab. santé","Tout public","","Sur rendez-vous uniquement","0491220999","romain-rolland@provence.synlab.fr",False),
	(441,"LBM SYNLAB PROVENCE SITE LE CAMAS","145 R DU CAMAS 13005 MARSEILLE",93,"5.39772811170218","43.294677509899","Sur place/En EHPAD/En étab. santé","Tout public","","Sur rendez-vous uniquement","0491473173","camas@provence.synlab.fr",False),
	(442,"LBM SYNLAB PROVENCE SITE LA FARE LES OLIVIERS","Avenue de Montricher 13580 La Fare-les-Oliviers",93,"5.184855","43.55025","Sur place/En EHPAD/En étab. santé","Tout public","","Sur rendez-vous uniquement","0490424888","la-Fare-les-Oliviers@provence.synlab.fr",False),
